stop_lat,stop_code,stop_lon,stop_id,stop_url,parent_station,stop_desc,stop_name,location_type,zone_id
36.093621,Sher48st,-95.904546,5988,,,4808 S Sheridan Rd & E 48th St S,S Sheridan Rd&E 48th St S,0,
36.083292,Ya55Pl,-95.922056,5989,,,5487 S Yale Ave & E 55th Pl S,S Yale Ave&E 55th Pl S,0,
36.101744,Sher42st,-95.904619,5982,,,4214 S Sheridan Rd & E 42nd St S,S Sheridan Rd&E 42nd St S,0,
36.103164,Sher42st,-95.904387,5983,,,4149 S Sheridan Rd & E 42nd St S,S Sheridan Rd&E 42nd St S,0,
36.090495,Sher51st,-95.904275,5980,,,5017 S Sheridan Rd & E 51st St S,E 51st St S&S Sheridan Ave,0,
36.103879,Sher41st,-95.904646,5981,,,4120 S Sheridan Rd & E 41st St S,S Sheridan Rd&E 41st St S,0,
36.091156,Sher50st,-95.904507,5986,,,4924 S Sheridan Rd & E 50th St S,S Sheridan Rd&E 50th St S,0,
36.096453,Sher46st,-95.904572,5987,,,4616 S Sheridan Rd & E 46th St S,S Sheridan Rd&E 46th St S,0,
36.100381,Sher44st,-95.904365,5984,,,4355 S Sheridan Rd & E 44th St S,S Sheridan Rd&E 44th St S,0,
36.098202,Sher46st,-95.904352,5985,,,4501 S Sheridan Rd & E 46th St S,S Sheridan Rd&E 46th St S,0,
36.184149,PeViNB,-95.975668,343,,,N PEORIA AVE & E VIRGIN ST,Peoria & Virgin,0,
36.166526,LewIndp,-95.958101,6150,,,825 N Lewis Ave & E Independance St,N Lewis Ave&E Independance St,0,
36.164696,LewHskS,-95.958087,6151,,,719 N Lewis Ave & E Haskell St,N Lewis Ave&E Haskell St,0,
36.162977,LewArch,-95.958096,6152,,,131 N Lewis Ave & E Archer St,N Lewis Ave&E Archer St,0,
36.191908,LewApch,-95.958097,6153,,,2601 N Lewis Ave & E Apache St,N Lewis Ave&E Apache St,0,
36.191184,LewApch,-95.958314,6154,,,2488 N Lewis Ave & E Apache St,N Lewis Ave&E Apache St,0,
36.161447,LewAdm,-95.958091,6155,,,67 N Lewis Ave & E Admiral Pl,N Lewis Ave&E Admiral Pl,0,
36.150009,Lew8st,-95.958113,6156,,,781 S Lewis Ave & E 8Th St S,S Lewis Ave&E 8Th St S,0,
36.057705,Lew73st,-95.957934,6158,,,7298 S Lewis Ave & E 73Rd St S,S Lewis Ave&E 73Rd St S,0,
36.055647,Lew73st,-95.95794,6159,,,7480 S Lewis Ave & E 73Rd St S,S Lewis Ave&E 73Rd St S,0,
36.156506,FLAG68,-95.959146,6794,,,,3RD AND LEWIS EB,0,
36.15647,FLAG69,-95.958141,6795,,,,3RD AND LEWIS SB,0,
36.160642,FLAG68,-95.931416,6793,,,,PITTSBURGH AND ADMRIAL OUTBOUND,0,
36.053369,COLLBACD,-95.793564,6799,,,,COLLBACD,0,
36.109081,38stMpwd,-95.905562,5854,,,6266 E 38th St S & S Maplewood Ave,E 38th St S&S Maplewood Ave,0,
36.148314,Utic11st,-95.96702,5855,,,1051 S Utica Ave & E 11th St S,S Utica Ave&E 11th St S,0,
36.146219,Utic12st,-95.967189,5856,,,1183 S Utica Ave & E 12th St S,S Utica Ave&E 12th St S,0,
36.145453,Utic12st,-95.967205,5857,,,1234 S Utica Ave & E 12th St S,S Utica Ave&E 12th St S,0,
36.121423,Sher30st,-95.904476,5850,,,2971 S Sheridan Rd & E 30th St S,S Sheridan Rd&E 30th St S,0,
36.11963,Sher31st,-95.904437,5851,,,3069 S Sheridan Rd & E 31st St S,S Sheridan Rd&E 31st St S,0,
36.104804,Sher41st,-95.904396,5852,,,4081 S Sheridan Rd & E 41st St S,E 41ST ST S&S SHERIDAN RD,0,
36.106734,Sher40st,-95.90465,5853,,,4006 S Sheridan Rd & E 40Th St S,S Sheridan Rd&E 40Th St S,0,
36.144561,Utic13st,-95.967024,5858,,,1299 S Utica Ave & E 13th St S,S Utica Ave&E 13th St S,0,
36.142126,Utic14st,-95.967285,5859,,,1406 S Utica Ave & E 14th St S,S Utica Ave&E 14th St S,0,
36.046921,WLM 81ST,-95.960904,276,,,S YORKTOWN AVE & E 81ST ST S,81st Street Wal-Mart,0,
36.16043,Adm/129,-95.833195,2264,,,S 129TH E AVE & E ADMIRAL PL,E Admiral Pl&N 129th E Ave,0,
36.061051,71st101a,-95.86386,6378,,,10085 E 71St St S & S 101St E Ave,E 71St St S&S 101St E Ave,0,
36.060557,71stRivD,-95.974849,6379,,,1334 E 71St St S & Riverside Dr,E 71St St S&Riverside Dr,0,
36.060719,71st73av,-95.891954,6371,,,7652 E 71St St S & S 73Rd E Ave,E 71St St S&S 73Rd E Ave,0,
36.061015,71st77av,-95.891689,6372,,,7677 E 71St St S & S 77Th E Ave,E 71St St S&S 77Th E Ave,0,
36.061007,71st73av,-95.895833,6374,,,7263 E 71St St S & S 73Rd E Ave,E 71St St S&S 73Rd E Ave,0,
36.060991,71st70av,-95.89868,6375,,,6985 E 71St St S & S 70Th E Ave/E 71St Ct S,E 71St St S&S 70Th E Ave,0,
36.060758,71st69av,-95.900155,6376,,,6914 E 71St St S & S 69Th E Ave,E 71St St S&S 69Th E Ave,0,
36.060784,71st101a,-95.863396,6377,,,10266 E 71St St S & S 101St E Ave,E 71St St S&S 101St E Ave,0,
36.134468,Lew20st,-95.958161,6204,,,1965 S Lewis Ave & E 20Th St S,S Lewis Ave&E 20Th St S,0,
36.15811,Lew2st,-95.958047,6205,,,149 S Lewis Ave & E 2Nd St S,S Lewis Ave&E 2Nd St S,0,
36.134966,Lew19st,-95.958326,6206,,,1910 S Lewis Ave & E 19Th St S,S Lewis Ave&E 19Th St S,0,
36.136649,Lew17Pl,-95.958317,6207,,,1744 S Lewis Ave & E 17Th Pl S,S Lewis Ave&E 17Th Pl S,0,
36.128549,Lew24st,-95.958301,6200,,,,S Lewis Ave&E 24Th St S,0,
36.130767,Lew22Pl,-95.95817,6201,,,2275 S Lewis Ave & E 22Nd Pl S,S Lewis Ave&E 22Nd Pl S,0,
36.130407,Lew22Pl,-95.95827,6202,,,,S Lewis Ave&E 22Nd Pl S,0,
36.133566,Lew21st,-95.958173,6203,,,2059 S Lewis Ave & E 21St St S,S Lewis Ave&E 21St St S,0,
36.139011,Lew16st,-95.958161,6208,,,1585 S Lewis Ave & E 16Th St S,S Lewis Ave&E 16Th St S,0,
36.140258,Lew15st,-95.958325,6209,,,1516 S Lewis Ave & E 15Th St S,S Lewis Ave&E 15Th St S,0,
36.152102,FLAG 73,-95.97564,6808,,,,PEORIA & 6TH,0,
36.108242,SSREASOR,-96.116007,6809,,,,SAND SPG REASORS,0,
36.15194,LEW&6TH,-95.95809,6806,,,,LEWIS&6TH,0,
36.154746,FLAG72,-95.975548,6807,,,,PEORIA & 5TH,0,
36.15549,4TH&LEW,-95.9583,6804,,,,4TH&LEWIS,0,
36.155436,LEW&4TH,-95.958154,6805,,,,LEWIS&4TH,0,
36.15626,3RD&LEW,-95.95829,6803,,,,3RDLEWIS,0,
36.140593,15stJop,-95.906059,5182,,,6288 E 15th St S & S Joplin Ave,E 15th St S&S Joplin Ave,0,
36.140614,15stGltt,-95.959901,5183,,,2233 E 15th St S & S Gillette Ave,E 15th St S&S Gillette Ave,0,
36.140682,15stSand,-95.928341,5180,,,,E 15th St S&S Sandusky Ave,0,
36.140659,15stUtic,-95.967663,5186,,,1663 E 15th St S & S Utica Ave,E 15th St S&S Utica Ave,0,
36.140527,15stUtic,-95.96676,5187,,,1732 E 15th St S & S Utica Ave,E 15th St S&S Utica Ave,0,
36.140678,15stUrba,-95.926247,5184,,,,E 15th St S&S Urbana Ave,0,
36.14045,15stUrba,-95.925537,5185,,,4614 E 15th St S & S Urbana Ave,E 15th St S&S Urbana Ave,0,
36.140667,15stVict,-95.966519,5188,,,1749 E 15th St S & S Victor Ave,E 15th St S&S Victor Ave,0,
36.140637,15stXanP,-95.962902,5189,,,1891 E 15th St S & S Xanthus Pl,E 15th St S&S Xanthus Pl,0,
36.147875,11YalWB,-95.922387,555,,,S YALE AVE & E 11TH ST S,E 11th St S&S Yale Ave,0,
36.160656,AdmYa,-95.921975,5458,,,4920 E Admiral Pl & N Yale Ave,Admiral Pl & Yale,0,
36.160857,AdmAlgh,-95.921932,5459,,,4925 E Admiral Pl & S Allegheny Ave,E Admiral Pl&S Allegheny Ave,0,
36.160665,AdmMem,-95.886239,5450,,,8510 E Admiral Pl & N Memorial Dr/S Memorial Dr,Admiral Pl & Memorial,0,
36.160665,AdmMem,-95.883687,5451,,,8568 E Admiral Pl & S Memorial Dr/N Memorial Dr,E Admiral Pl& Memorial Dr,0,
36.160704,AdmNwdA,-95.906509,5452,,,6320 E Admiral Pl & N Norwood Ave,E Admiral Pl&N Norwood Ave,0,
36.160842,AdmSand,-95.92804,5453,,,4189 E Admiral Pl & N Sandusky Ave,E Admiral Pl&N Sandusky Ave,0,
36.160646,AdmSand,-95.927556,5454,,,4410 E Admiral Pl & N Sandusky Ave,E Admiral Pl&N Sandusky Ave,0,
36.160687,AdmSher,-95.904212,5455,,,6528 E Admiral Pl & S Sheridan Rd/N Sheridan Rd,E Admiral Pl&S Sheridan Rd,0,
36.160661,AdmUrba,-95.92532,5456,,,4608 E Admiral Pl & N Urbana Ave,E Admiral Pl&N Urbana Ave,0,
36.160852,AdmYa,-95.922922,5457,,,4851 E Admiral Pl & N Yale Ave,Admiral Pl & Yale,0,
36.16956,GilEstat,-96.01803,4254,,,N 24TH W AVE & N YUKON CIRCLE,Gilcrease Estates,0,
36.17717,PineFul,-95.915781,5533,,,5287 E Pine St & N Fulton Ave,E Pine St&N Fulton Ave,0,
36.177041,PineFul,-95.91536,5532,,,5342 E Pine St & N Fulton Ave,E Pine St&N Fulton Ave,0,
36.17701,PineFkft,-95.989829,5531,,,463 E Pine St & N Frankfort Ave,E Pine St&N Frankfort Ave,0,
36.176886,PineFkft,-95.988611,5530,,,516 E Pine St & N Frankfort Ave,E Pine St&N Frankfort Ave,0,
36.176884,PineGrnw,-95.98643,5537,,,620 E Pine St & N Greenwood Ave,Greenwood & Pine,0,
36.177199,PineGary,-95.942256,5536,,,,E Pine St&N Gary Ave,0,
36.177061,PineGary,-95.941839,5535,,,3222 E Pine St & N Gary Ave,E Pine St&N Gary Ave,0,
36.177138,PineGntt,-95.851554,5534,,,11285 E Pine St & N Garnett Rd,E Pine St & Garnett Rd,0,
36.17703,PineGnwP,-95.985604,5539,,,676 E Pine St & N Greenwood Pl,E Pine St&N Greenwood Pl,0,
36.177011,PineGrnw,-95.987201,5538,,,581 E Pine St & N Greenwood Ave,E Pine St&N Greenwood Ave,0,
36.073116,StFrSB,-95.918109,1286,,,,St. Francis Hospital,0,
36.089917,51st27av,-96.02383,6577,,,2735 W 51St St S & S 27Th W Ave,W 51St St S&S 27Th W Ave,0,
36.098842,33av45st,-96.029621,6574,,,4416 S 33Rd W Ave & W 45Th St S,S 33Rd W Ave&W 45Th St S,0,
36.17408,GrnwNwtP,-95.986728,5628,,,,N Greenwood Ave&E Newton Pl,0,
36.173659,GrnwNwtP,-95.986891,5627,,,1282 N Greenwood Ave & E Newton Pl,N Greenwood Ave&E Newton Pl,0,
36.171698,GrnwMrsh,-95.986887,5626,,,1184 N Greenwood Ave & E Marshall St,N Greenwood Ave&E Marshall St,0,
36.173081,GrnwMarP,-95.98672,5625,,,1217 N Greenwood Ave & E Marshall Pl,N Greenwood Ave&E Marshall Pl,0,
36.160527,GrnwCamr,-95.986522,5624,,,174 N Greenwood Ave & E Cameron St,N Greenwood Ave&E Cameron St,0,
36.160096,GrnwArch,-95.986165,5623,,,129 N Greenwood Ave & E Archer St,N Greenwood Ave&E Archer St,0,
36.161774,GiRdEd,-96.019785,5622,,,N Gilcrease Museum Rd/N 25Th W Ave & W Edison St,N Gilcrease Museum Rd & N 25Th W Ave,0,
36.159992,GiRdEasP,-96.020265,5621,,,519 N Gilcrease Museum Rd/N 25Th W Ave & W Easton Pl,S 25Th W Ave & W Easton,0,
36.160297,GiRdEasC,-96.02037,5620,,,550 N Gilcrease Museum Rd/N 25Th W Ave & W Easton Ct,N Gilcrease Museum Rd & W Easton Ct,0,
36.147637,Pe11SB,-95.975836,406,,,S PEORIA AVE & E 11TH ST S,Peoria & 11th St S,0,
36.151968,Pe6S,-95.975762,403,,,,Peoria/6th S-SW,0,
36.070477,Ya65st,-95.922041,5994,,,6457 S Yale Ave & E 65th St,S Yale Ave&E 65th St,0,
36.247202,Peo65st,-95.975644,5997,,,6464 N Peoria Ave & E 65Th St N,N Peoria Ave&E 65Th St N,0,
36.075928,Ya61st,-95.92199,5991,,,6061 S Yale Ave & E 61st St S,S Yale Ave&E 61st St S,0,
36.082872,Ya55Pl,-95.922392,5990,,,5516 S Yale Ave & E 55th Pl S,S Yale Ave&E 55th Pl S,0,
36.155965,Pitt4 th,-95.931395,4037,,,S PITTSBURGH AVE & E 4TH ST S,E 4Th St S& Pittsburgh Ave,0,
36.068514,Ya66st,-95.922037,5992,,,6583 S Yale Ave & E 66th St S,S Yale Ave&E 66th St S,0,
36.241164,Peo60Pl,-95.975638,5999,,,6018 N Peoria Ave & E 60Th Pl N,N Peoria Ave & 60th St N,0,
36.245447,Peo63st,-95.97565,5998,,,6268 N Peoria Ave & E 63Th St N,N Peoria Ave & 63rd St N,0,
36.130515,SW23st,-96.006843,6536,,,2225 Southwest Blvd & W 23Rd St S,Southwest Blvd&W 23Rd St S,0,
36.133706,SW21st,-96.006856,6537,,,2047 Southwest Blvd & W 21St St S,Southwest Blvd&W 21St St S,0,
36.129933,23stNoga,-96.00444,6534,,,1065 W 23Rd St S & S Nogales Ave,W 23Rd St S&S Nogales Ave,0,
36.129926,23stOlym,-96.005424,6535,,,1165 W 23Rd St S & S Olympia Ave,W 23Rd St S&S Olympia Ave,0,
36.129914,23stJack,-95.99986,6532,,,731 W 23Rd St S & S Jackson Ave,W 23Rd St S&S Jackson Ave,0,
36.129922,23stMayb,-96.002178,6533,,,905 W 23Rd St S & S Maybelle Ave,W 23Rd St S&S Maybelle Ave,0,
36.126229,25stNoga,-96.001578,6530,,,876 W 25Th St S & S Nogales Ave,W 25Th St S&S Nogales Ave,0,
36.128634,Jack25st,-95.999392,6531,,,2363 S Jackson Ave & W 25Th St S,S Jackson Ave&W 25Th St S,0,
36.205161,LewMHKB,-95.958114,6143,,,3527 N Lewis Ave & Mohawk Blvd,N Lewis Ave&Mohawk Blvd,0,
36.036272,LewMagn,-95.954786,6142,,,8778 S Lewis Ave & E Magnolia Dr,S Lewis Ave&E Magnolia Dr,0,
36.096358,Lew46Pl,-95.957914,6141,,,4619 S Lewis Ave & E 46Th Pl S,S Lewis Ave&E 46Th Pl S,0,
36.099012,Lew45st,-95.957918,6140,,,4481 S Lewis Ave & E 45Th St S,S Lewis Ave&E 45Th St S,0,
36.17372,LewNwtS,-95.958174,6147,,,1305 N Lewis Ave & E Newton St,N Lewis Ave&E Newton St,0,
36.150903,6BosEB,-95.98823,396,,,S BOSTON AVE & E 6TH ST S,E 6Th St S&S Boston Ave,0,
36.091516,LewSkDr,-95.957898,6145,,,4959 S Lewis Ave & E Skelly Dr,S Lewis Ave&E Skelly Dr,0,
36.18225,LewTecm,-95.958159,6144,,,1921 N Lewis Ave & E Tecumseh St,N Lewis Ave&E Tecumseh St,0,
36.171986,LewDaws,-95.958148,6149,,,1183 N Lewis Ave & Dawson Rd,N Lewis Ave&Dawson Rd,0,
36.20445,LewMHKB,-95.958291,6148,,,3464 N Lewis Ave & Mohawk Blvd,N Lewis Ave&Mohawk Blvd,0,
36.137903,SWW17,-96.006829,6781,,,,SOUTHWEST BLVD & W 17TH NB,0,
36.0282,MEM93RD,-95.886371,6780,,,,MEMORIAL AND 93RD,0,
36.140905,BLD15THW,-95.988595,6783,,,,BOULDER & 15TH STREET WESTSIDE,0,
36.050763,UNIW78,-96.011738,6782,,,,S UNION AVE & W 78TH STREET S,0,
36.136267,BLD18,-95.988407,6785,,,,BOULDER AND 18TH STREET EAST,0,
36.13816,BLD17,-95.988375,6784,,,,BOULDER AND 17TH EAST SIDE,0,
36.206285,36NPEO,-95.97511,6787,,,,36TH ST N & PEORIA FD FLAG STOP,0,
36.206396,36NLEW,-95.957769,6786,,,,36TH STREET NORTH & LEWIS FD FLAG STOP,0,
36.125199,Sher26Ct,-95.904494,5847,,,2599 S Sheridan Rd & E 26th Ct S,S Sheridan Rd&E 26th Ct S,0,
36.127483,Sher25Pl,-95.904498,5846,,,2461 S Sheridan Rd & E 25th Pl S,S Sheridan Rd&E 25th Pl S,0,
36.129293,Sher24st,-95.904494,5845,,,2361 S Sheridan Rd & E 24th St S,S Sheridan Rd&E 24th St S,0,
36.130119,Sher23st,-95.904493,5844,,,2195 S Sheridan Rd & E 23rd St S,S Sheridan Rd&E 23rd St S,0,
36.133796,Sher21st,-95.90448,5842,,,2069 S Sheridan Rd & E 21st St S,S Sheridan Rd&E 21st St S,0,
36.131342,Sher21Pl,-95.904654,5841,,,2158 S Sheridan Rd & E 21st Pl S,S Sheridan Rd&E 21st Pl S,0,
36.131956,Sher21Pl,-95.904501,5840,,,2139 S Sheridan Rd & E 21st Pl S,S Sheridan Rd&E 21st Pl S,0,
36.121896,Sher28st,-95.904672,5849,,,2922 S Sheridan Rd & E 28th St S,S Sheridan Rd&E 28th St S,0,
36.122619,Sher28st,-95.904505,5848,,,2821 S Sheridan Rd & E 28th St S,S Sheridan Rd&E 28th St S,0,
36.156747,3Lew-WB,-95.959169,3747,,,,3rd/Lewis W-NW,0,
36.146416,Ma10SB,-95.987252,2458,,,S MAIN ST & E 10TH ST S,S Main St&W 10th St S,0,
36.08521,Ba  145,-95.814026,2454,,,S 145TH E AVE & W GRANGER ST N,Battle Creek Church,0,
36.154843,1MaiWB,-95.991846,2457,,,S MAIN ST & E 1ST ST S,1st St S & Main,0,
36.149559,Bo7NB,-95.987468,2456,,,S BOSTON AVE & E 7TH ST S,S Boston Ave&E 7th St S,0,
36.133568,21st99av,-95.866332,5208,,,9893 E 21st St S & S 99th E Ave,E 21st St S&S 99th E Ave,0,
36.060742,71st85av,-95.882028,6369,,,8522 E 71St St S & S 85Th E Ave,E 71St St S&S 85Th E Ave,0,
36.060697,71stGran,-95.91459,6363,,,5556 E 71St St S & S Granite Ave,E 71St St S&S Granite Ave,0,
36.060705,71stHarv,-95.939493,6362,,,,E 71St St S&S Harvard Ave,0,
36.060715,71stIrvg,-95.911399,6361,,,5818 E 71St St S & S Irvington Ave,E 71St St S&S Irvington Ave,0,
36.060715,71stLake,-95.90785,6360,,,6106 E 71St St S & S Lakewood Ave,E 71St St S&S Lakewood Ave,0,
36.060771,71st89av,-95.87738,6367,,,9018 E 71St St S & S 89Th E Ave,E 71St St S&S 89Th E Ave,0,
36.060785,71st92av,-95.873337,6366,,,9338 E 71St St S & S 92Nd E Ave,E 71St St S&S 92Nd E Ave,0,
36.060686,71stCant,-95.918989,6365,,,5170 E 71St St S & S Canton Ave,E 71St St S&S Canton Ave,0,
36.060692,71stEvan,-95.946614,6364,,,2910 E 71St St S & S Evanston Ave,E 71St St S&S Evanston Ave,0,
36.047776,Lew75st,-95.957975,6217,,,7930 S Lewis Ave & E 75Th St S,S Lewis Ave&E 75Th St S,0,
36.170017,LewDaws,-95.958129,6216,,,1113 S Lewis Ave & Dawson Rd,S Lewis Ave&Dawson Rd,0,
36.147439,Lew11st,-95.958311,6215,,,1120 S Lewis Ave & E 11Th St S,S Lewis Ave&E 11Th St S,0,
36.148139,Lew11st,-95.958123,6214,,,1061 S Lewis Ave & E 11Th St S,S Lewis Ave&E 11Th St S,0,
36.144864,Lew12Pl,-95.958307,6213,,,1250 S Lewis Ave & E 12Th Pl S,S Lewis Ave&E 12Th Pl S,0,
36.143675,Lew13st,-95.958319,6212,,,1340 S Lewis Ave & E 13Th St S,S Lewis Ave&E 13Th St S,0,
36.141399,Lew14Pl,-95.958294,6211,,,1440 S Lewis Ave & E 14Th Pl S,S Lewis Ave&E 14Th Pl S,0,
36.141702,Lew14Pl,-95.958129,6210,,,1408 S Lewis Ave & E 14Th Pl S,S Lewis Ave&E 14Th Pl S,0,
36.051791,Lew75st,-95.957963,6219,,,7710 S Lewis Ave & E 75Th St S/UNNAMED ST,S Lewis Ave&E 75Th St S,0,
36.049154,Lew75st,-95.95796,6218,,,7844 S Lewis Ave & E 75Th St S,S Lewis Ave&E 75Th St S,0,
36.118595,31MeWB,-95.886717,1968,,,S MEMORIAL DR & E 31ST ST S,S Memorial Dr&E 31st St S,0,
36.133559,21st123a,-95.841063,5198,,,12125 E 21st St S & S 123Rd E Ave,E 21st St S&S 123Rd E Ave,0,
36.133578,21st107a,-95.86223,5195,,,10311 E 21st St S & S 107Th E Ave,E 21st St S&S 107Th E Ave,0,
36.140695,15stFul,-95.916001,5194,,,,E 15th St S&S Fulton Ave,0,
36.15174,GiCPBSB,-96.020164,3238,,,S 25TH W AVE & E CHARLES PAGE BLVD,Charles Page Blvd & 25th W Ave,0,
36.147343,CP65WB,-96.064803,3239,,,S 65TH W AVE & E CHARLES PAGE BLVD,65th W Ave. & Charles Page Blvd,0,
36.140466,15stYa,-95.922161,5191,,,4930 E 15th St S & S Yale Ave,E 15th St S&S Yale Ave,0,
36.140689,15stYa,-95.923007,5190,,,4855 E 15th St S & S Yale Ave,E 15th St S&S Yale Ave,0,
36.140654,15stColu,-95.953327,5193,,,2603 E 15th St S & S Columbia Ave,E 15th St S&S Columbia Ave,0,
36.140485,15stYork,-95.961798,5192,,,2104 E 15th St S & S Yorktown Ave,E 15th St S&S Yorktown Ave,0,
36.160688,AdmJop,-95.909776,5449,,,5964 E Admiral Pl & S Joplin Ave,E Admiral Pl&S Joplin Ave,0,
36.160689,AdmDar,-95.913704,5448,,,5584 E Admiral Pl & S Darlington Ave,E Admiral Pl&S Darlington Ave,0,
36.160887,Adm89av,-95.878247,5443,,,8889 E Admiral Pl & N 89th E Ave/S 89Th E Ave,E Admiral Pl& 89th E Ave,0,
36.160918,Adm78av,-95.890335,5442,,,7499 E Admiral Pl & S 78Th E Ave,E Admiral Pl&S 78Th E Ave,0,
36.16072,Adm120a,-95.844056,5441,,,11867 E Admiral Pl & N 120th E Ave,E Admiral Pl&N 120th E Ave,0,
36.160832,Adm106p,-95.858432,5440,,,E Admiral Pl & N 106th E Pl/S 106Th E Pl,E Admiral Pl& 106th E Pl,0,
36.160883,AdmJop,-95.913395,5447,,,5709 E Admiral Pl & S Joplin Ave,E Admiral Pl&S Joplin Ave,0,
36.160695,AdmDar,-95.917741,5446,,,5312 E Admiral Pl & N Darlington Ave/S Darlington Ave,E Admiral Pl& Darlington Ave,0,
36.160687,AdmAlgh,-95.918802,5445,,,5066 E Admiral Pl & S Allegheny Ave,E Admiral Pl&S Allegheny Ave,0,
36.160888,Adm91av,-95.87609,5444,,,8971 E Admiral Pl & N 91st E Ave,E Admiral Pl&N 91st E Ave,0,
36.17701,Pine72av,-95.895894,5508,,,7248 E Pine St & N 72nd E Ave,E Pine St&N 72nd E Ave,0,
36.177191,PinePit,-95.931463,5509,,,3999 E Pine St & N Pittsburg Ave,E Pine St&N Pittsburg Ave,0,
36.164207,JHFBCin,-95.993214,5507,,,E John Hope Franklin Blvd & N Cincinnati Ave,E John Hope Franklin Blvd&Martin Luther King Jr Blvd,0,
36.157365,ArchMa,-95.992826,5504,,,,E Archer St&N Main St,0,
36.166034,IndpCin,-95.99316,5505,,,230 E Independence St & N Cincinnati Ave/N Detroit Ave,E Independence St&N Cincinnati Ave,0,
36.159028,ArchElg,-95.988113,5502,,,426 E Archer St & N Elgin Ave,E Archer St&N Elgin Ave,0,
36.15974,ArchGrnw,-95.986495,5503,,,571 E Archer St & N Greenwood Ave,E Archer St&N Greenwood Ave,0,
36.15803,ArchBos,-95.990924,5500,,,,E Archer St&N Boston Ave,0,
36.158912,ArchElg,-95.988838,5501,,,,E Archer St&N Elgin Ave,0,
36.148086,11/SherW,-95.904735,548,,,S SHERIDAN AVE & E 11TH ST S,E 11th St S&S Sheridan Rd,0,
36.158194,GiRdCamr,-96.020305,5618,,,331 N Gilcrease Museum Rd/N 25Th W Ave & W Cameron St,S 25Th W Ave & W Cameron,0,
36.157734,GiRdCamr,-96.020466,5619,,,268 N Gilcrease Museum Rd/N 25Th W Ave & W Cameron St,N Gilcrease Museum Rd/N 25Th W Ave&,0,
36.101976,SW43pl,-96.026671,6568,,,4285 Southwest Blvd & W 43Rd Pl S,Southwest Blvd&W 43Rd Pl S,0,
36.089803,51st26av,-96.021646,6565,,,2520 W 51St St S & S 26Th W Ave,W 51St St S&S 26Th W Ave,0,
36.164597,DetJHFB,-95.992776,5613,,,N Detroit Ave & E John Hope Franklin Blvd,N Detroit Ave&E John Hope Franklin,0,
36.176103,CinPine,-95.993636,5610,,,N Cincinnati Ave & E Pine St,Martin Luther King Jr Blvd & E Pine St,0,
36.15361,3stBos,-95.990751,6405,,,35 E 3Rd St S & S Boston Ave,E 3Rd St S&S Boston Ave,0,
36.176925,GnttPine,-95.851252,5616,,,1488 N Garnett Rd & E Pine St,N Garnett Rd&E Pine St,0,
36.170355,GrnwLatP,-95.986712,5617,,,1131 N Greenwood Ave & E Latimer Pl,N Greenwood Ave&E Latimer Pl,0,
36.166859,ElgIndp,-95.991225,5614,,,901 N Elgin Ave & E Independence St,N Elgin Ave&E Independence St,0,
36.170953,GnttMrsh,-95.851218,5615,,,1186 N Garnett Rd & E Marshall St,N Garnett Rd&E Marshall St,0,
36.029704,ElBAAtlC,-95.797378,5715,,,2005 S Elm Pl/S 161st E Ave & W Atlanta Ct,S Elm Pl&W Atlanta Ct,0,
36.02972,ElBAAtSt,-95.797612,5714,,,2004 S Elm Pl/S 161st E Ave & W Atlanta St/E 93Rd St S,S Elm Pl&W Atlanta St,0,
36.108104,Lew38st,-95.957988,6178,,,3779 S Lewis Ave & E 38Th St S,S Lewis Ave&E 38Th St S,0,
36.108722,Lew37st,-95.958111,6179,,,3702 S Lewis Ave & E 37Th St S,S Lewis Ave&E 37Th St S,0,
36.106523,Lew40st,-95.958073,6177,,,3914 S Lewis Ave & E 40Th St S,S Lewis Ave&E 40Th St S,0,
36.106787,Lew39st,-95.958016,6174,,,3891 S Lewis Ave & E 39Th St S,S Lewis Ave&E 39Th St S,0,
36.103722,Lew44st,-95.957954,6175,,,4135 S Lewis Ave & E 44Th St S,S Lewis Ave&E 44Th St S,0,
36.104554,Lew41st,-95.957878,6173,,,4071 S Lewis Ave & E 41St St S,S Lewis Ave&E 41St St S,0,
36.094526,Lew47Pl,-95.957905,6170,,,4781 S Lewis Ave & E 47Th Pl S,S Lewis Ave&E 47Th Pl S,0,
36.097574,Lew45Pl,-95.958054,6171,,,4556 S Lewis Ave & E 45Th Pl S,S Lewis Ave&E 45Th Pl S,0,
36.036305,FLAG 64,-95.86472,6778,,,,508 CL 101ST E AVE /UNNAMED,0,
36.034751,FLAG 65,-95.864716,6779,,,,508 CL 101ST E AVE & 88TH ST S,0,
36.065194,FLAG 60,-95.882248,6774,,,,WOODLAND HILLS MALL WB 471,0,
36.20292,FLAG 61,-95.99338,6775,,,,CRESTVIEW FROM DOWNTOWN,0,
36.20292,FLAG 62,-95.993357,6776,,,,CRESTVIEW TO DOWNTOWN,0,
36.04555,FLAG 63,-95.863295,6777,,,,508 CC TCC,0,
36.073054,FLAG 56,-95.918041,6770,,,,ST. FRANCIS EASTBOUND,0,
36.073116,FLAG 57,-95.918086,6771,,,,ST. FRANCIS WESTBOUND,0,
36.065239,FLAG 58,-95.882349,6772,,,,WOODLAND HILLS MALL 318 FROM MID,0,
36.065203,FLAG 59,-95.882349,6773,,,,WOODLAND HILLS MALL EB471,0,
36.128393,UticTroo,-95.967047,5872,,,2489 S Utica Ave & S Troost Ave,S Utica Ave&S Troost Ave,0,
36.136669,UticSwan,-95.967151,5873,,,,S Utica Ave&Swan Dr,0,
36.151887,Utic6st,-95.967221,5870,,,640 S Utica Ave & E 6th St S,S Utica Ave&E 6th St S,0,
36.149393,Utic8st,-95.967132,5871,,,906 S Utica Ave & E 8th St S,S Utica Ave&E 8th St S,0,
36.114578,Ya33st,-95.922543,5876,,,3374 S Yale Ave & E 33Rd St S,S Yale Ave&E 33Rd St S,0,
36.111346,Ya36st,-95.922502,5877,,,3614 S Yale Ave & E 36th St S,S Yale Ave&E 36th St S,0,
36.13645,UticSwan,-95.967316,5874,,,,S Utica Ave&Swan Dr,0,
36.115456,Ya33st,-95.922274,5875,,,3307 S Yale Ave & E 33rd St S,S Yale Ave&E 33rd St S,0,
36.107781,Ya38Pl,-95.922231,5878,,,,S Yale Ave&E 38th Pl S,0,
36.10513,Ya41st,-95.922231,5879,,,4033 S Yale Ave & E 41st St S,S Yale Ave&E 41st St S,0,
36.117131,Me32S,-95.886759,257,,,S MEMORIAL DR & E 31ST PL S,S Memorial Dr&E 31st St S,0,
36.093256,Garn48ST,-95.851208,6688,,,4750 S Garnett Rd & E 48th St S,S Garnett Rd & E 48th St S,0,
36.098164,Mem46Pl,-95.886429,6689,,,4423 S Memorial Dr & E 46th Pl S,S Memorial Dr & E 46th Pl S,0,
36.089971,51stSher,-95.905261,6680,,,6113 E 51st St S & S Sheridan Rd,E 51st St S & S Sheridan Rd,0,
36.099821,Sher44st,-95.904599,6681,,,4374 S Sheridan Rd & E 44th St S,S Sheridan Rd & E 44th St S,0,
36.109086,38stLkwd,-95.908395,6682,,,3801 E 38th St S & S Lakewood Ave,E 38th St S & S Lakewood Ave,0,
36.087049,Mem53st,-95.886675,6683,,,5332 S Memorial Dr & E 53rd St S,S Memorial Dr & E 53rd St S,0,
36.080176,Mem58st,-95.886603,6684,,,5800 S Memorial Dr & E 58th St S,S Memorial Dr & E 58th St S,0,
36.073429,107a109a,-95.857682,6685,,,6219 S 107th E Ave/S109th E Ave,S 107th E Ave & 63rd St S,0,
36.060732,71st73av,-95.895145,6686,,,7300 E 71st St S & S 73rd E Ave,E 71st St S & S 73rd E Ave,0,
36.060736,71st78av,-95.89006,6687,,,7800 E 71st St S & S 78th E Ave,E 71st St S & S 78th E Ave,0,
36.061066,71stMngo,-95.869296,6356,,,9637 E 71St St S & S Mingo Rd/S97Th E Ave,E 71St St S&S Mingo Rd,0,
36.060726,71st78av,-95.888201,6357,,,7926 E 71St St S & S 78Th E Ave,E 71St St S&S 78Th E Ave,0,
36.060851,71stQuin,-95.972678,6354,,,1439 E 71St St S & S Trenton Ave,E 71St St S&S QUINCY AVE,0,
36.060573,71stQuin,-95.973183,6355,,,1416 E 71St St S & S Quincy Ave,E 71St St S&S Quincy Ave,0,
36.06073,71stSher,-95.903717,6352,,,6536 E 71St St S & S Sheridan Rd,E 71St St S&S Sheridan Rd,0,
36.061007,71stSher,-95.905104,6353,,,6175 E 71St St S & S Sheridan Rd,E 71St St S&S Sheridan Rd,0,
36.060871,71stTren,-95.969392,6350,,,1587 E 71St St S & S Trenton Ave,E 71St St S&S Trenton Ave,0,
36.060594,71stQuin,-95.970399,6351,,,1544 E 71St St S & S Quincy Ave,E 71St St S&S Quincy Ave,0,
36.060739,71stMem,-95.885368,6358,,,,E 71St St S&S Memorial Dr,0,
36.060688,71stLew,-95.957329,6359,,,2426 E 71St St S & S Lewis Ave,E 71St St S&S Lewis Ave,0,
36.12359,Lew27Pl,-95.958121,6194,,,2711 S Lewis Ave & E 27Th Pl S,S Lewis Ave&E 27Th Pl S,0,
36.125325,Lew26Pl,-95.95815,6195,,,,S Lewis Ave&E 26Th Pl S,0,
36.124898,Lew26Pl,-95.958269,6196,,,2628 S Lewis Ave & E 26Th Pl S,S Lewis Ave&E 26Th Pl S,0,
36.127131,Lew25Pl,-95.958168,6197,,,,S Lewis Ave&E 25Th Pl S,0,
36.195663,Lew29Pl,-95.958296,6190,,,2904 N Lewis Ave & E 29Th Pl N,N Lewis Ave&E 29Th Pl N,0,
36.121269,Lew30st,-95.9581,6191,,,2907 S Lewis Ave & E 30Th St S,S Lewis Ave&E 30Th St S,0,
36.121218,Lew29st,-95.958252,6192,,,2906 S Lewis Ave & E 29Th St S,S Lewis Ave&E 29Th St S,0,
36.193436,Lew28st,-95.958298,6193,,,2710 N Lewis Ave & E 28Th St N,N Lewis Ave&E 28Th St N,0,
36.126863,Lew25Pl,-95.958282,6198,,,,S Lewis Ave&E 25Th Pl S,0,
36.128918,Lew24st,-95.958137,6199,,,,S Lewis Ave&E 24Th St S,0,
36.119055,31st101a,-95.863876,5298,,,10135 E 31st St S & S 101st E Ave,E 31st St S&S 101st E Ave,0,
36.119107,31st108a,-95.856743,5299,,,10683 E 31st St S & S 108th E Ave,E 31st St S&S 108th E Ave,0,
36.118839,31st77av,-95.890934,5296,,,7622 E 31st St S & S 77Th E Ave,E 31st St S&S 77Th E Ave,0,
36.118863,31st101a,-95.862867,5297,,,10194 E 31st St S & S 101st E Ave,E 31st St S&S 101st E Ave,0,
36.119024,31st99av,-95.866657,5294,,,9743 E 31st St S & S 99th E Ave,E 31st St S&S 99th E Ave,0,
36.11906,31stMngo,-95.869135,5295,,,9477 E 31st St S & S Mingo Rd,E 31st St S&S Mingo Rd,0,
36.118904,31st111a,-95.852795,5292,,,11162 E 31st St S & S 111th E Ave,E 31st St S&S 111th E Ave,0,
36.118852,31st129a,-95.832776,5293,,,12918 E 31st St S & S 129th E Ave,E 31st St S&S 129th E Ave,0,
36.133438,21stYa,-95.923537,5290,,,,E 21st St S&S Yale Ave,0,
36.118863,31st108a,-95.856113,5291,,,10824 E 31st St S & S 108th E Ave,E 31st St S&S 108th E Ave,0,
36.147835,11st87av,-95.879926,5058,,,8702 E 11th St S & S 87th E Ave,E 11th St S&S 87th E Ave,0,
36.14813,11st89av,-95.878029,5059,,,8789 E 11th St S & S 89th E Ave,E 11th St S&S 89th E Ave,0,
36.148115,11st85av,-95.884279,5054,,,8311 E 11th St S & S 85Th E Ave,E 11th St S&S 85Th E Ave,0,
36.147826,11st83av,-95.884219,5055,,,8310 E 11th St S & S 83rd E Ave,E 11th St S&S 83rd E Ave,0,
36.148116,11st85av,-95.882447,5056,,,8390 E 11th St S & S 85th E Ave,E 11th St S&S 85th E Ave,0,
36.147827,11st85av,-95.881978,5057,,,8512 E 11th St S & S 85th E Ave,E 11th St S&S 85th E Ave,0,
36.147906,11st75av,-95.89313,5050,,,7522 E 11th St S & S 75th E Ave,E 11th St S&S 75th E Ave,0,
36.148205,11st76av,-95.892641,5051,,,7569 E 11th St S & S 76th E Ave,E 11th St S&S 76th E Ave,0,
36.147913,11st77av,-95.890822,5052,,,7730 E 11th St S & S 77th E Ave,E 11th St S&S 77th E Ave,0,
36.14819,11st79av,-95.889169,5053,,,7877 E 11th St S & S 79th E Ave,E 11th St S&S 79th E Ave,0,
36.040147,Lew87st,-95.956852,6222,,,8541 S Lewis Ave & E 87Th St S,S Lewis Ave&E 87Th St S,0,
36.083604,Lew55Pl,-95.957888,6223,,,5531 S Lewis Ave & E 55Th Pl S,S Lewis Ave&E 55Th Pl S,0,
36.053183,Lew75st,-95.957977,6220,,,7656 S Lewis Ave & E 75Th St S,S Lewis Ave&E 75Th St S,0,
36.189462,LewWdrS,-95.958116,6221,,,2423 N Lewis Ave & E Woodrow St,N Lewis Ave&E Woodrow St,0,
36.055662,Lew75st,-95.957763,6226,,,7481 S Lewis Ave & E 75Th St S,S Lewis Ave&E 75Th St S,0,
36.058094,Lew73st,-95.957765,6227,,,7275 S Lewis Ave & E 73Rd St S,S Lewis Ave&E 73Rd St S,0,
36.052224,Lew81st,-95.957681,6224,,,7693 S Lewis Ave & E 81St St S,S Lewis Ave&E 81St St S,0,
36.048294,Lew81st,-95.957664,6225,,,7889 S Lewis Ave & E 81St St S,S Lewis Ave&E 81St St S,0,
36.062171,Lew71st,-95.957731,6228,,,7001 S Lewis Ave & E 71St St S,S Lewis Ave&E 71St St S,0,
36.075634,Lew61st,-95.957869,6229,,,6071 S Lewis Ave & E 61St St S,S Lewis Ave&E 61St St S,0,
36.133093,Ut21NB,-95.966611,1601,,,S UTICA AVE & E 21ST ST S,S Utica Ave&E 21st St S,0,
36.14988,49WWMSB,-96.046669,3224,,,S 49TH W AVE & E CHARLES PAGE BLVD,49th W Ave Warehouse Mkt,0,
36.160524,AdmGntt,-95.85084,5476,,,11312 E Admiral Pl & S Garnett Rd,E Admiral Pl&S Garnett Rd,0,
36.16063,Adm91av,-95.874566,5474,,,9152 E Admiral Pl & S 91st E Ave,E Admiral Pl&S 91st E Ave,0,
36.160872,AdmDar,-95.919515,5475,,,5031 E Admiral Pl & N Darlington Ave/S Darlington Ave,E Admiral Pl& Darlington Ave,0,
36.160636,Adm78av,-95.890056,5472,,,7808 E Admiral Pl & S 78th E Ave,E Admiral Pl&S 78th E Ave,0,
36.160609,Adm89av,-95.877433,5473,,,8912 E Admiral Pl & S 89th E Ave,E Admiral Pl&S 89th E Ave,0,
36.160881,Adm73av,-95.896289,5470,,,7247 E Admiral Pl & S 73rd E Ave,E Admiral Pl&S 73rd E Ave,0,
36.160646,Adm73av,-95.895299,5471,,,7332 E Admiral Pl & S 73rd E Ave,E Admiral Pl&S 73rd E Ave,0,
36.160834,AdmMem,-95.887364,5478,,,7881 E Admiral Pl & N Memorial Dr/S Memorial Dr,E Admiral Pl& Memorial Dr,0,
36.160873,AdmSher,-95.904959,5479,,,6459 E Admiral Pl & N Sheridan Rd/S Sheridan Rd,E Admiral Pl& Sheridan Rd,0,
36.13337,21stMem,-95.886089,5274,,,8154 E 21st St S & S Memorial Dr,E 21st St S&S Memorial Dr,0,
36.133562,21stMem,-95.887413,5275,,,7931 E 21st St S & S Memorial Dr,E 21st St S&S Memorial Dr,0,
36.133239,21stOswe,-95.932339,5276,,,,E 21st St S&S Oswego Ave,0,
36.133299,21stOw,-95.976983,5277,,,1220 E 21st St S & S Owasso Ave/E 21St Pl S,E 21st St S&S Owasso Ave,0,
36.133292,21stMad,-95.980238,5270,,,1018 E 21st St S & S Madison Ave,E 21st St S&S Madison Ave,0,
36.133285,21stMa,-95.987101,5271,,,24 E 21st St S & S Main St,E 21st St S&S Main St,0,
36.133362,21stMpwd,-95.906748,5272,,,6206 E 21st St S & S Maplewood Ave,E 21st St S&S Maplewood Ave,0,
36.133231,21stMari,-95.935113,5273,,,,E 21st St S&S Marion Ave,0,
36.133301,21stPeo,-95.975097,5278,,,1330 E 21st St S & S Peoria Ave,E 21st St S&S Peoria Ave,0,
36.133295,21stRock,-95.971361,5279,,,1502 E 21st St S & S Rockford Ave,E 21st St S&S Rockford Ave,0,
36.177074,PineAtlC,-95.954594,5519,,,2542 E Pine St & N Atlanta Ct,E Pine St&N Atlanta Ct,0,
36.176962,Pine95av,-95.870504,5518,,,9566 E Pine St & N 95th E Ave,E Pine St&N 95th E Ave,0,
36.176953,Pine108a,-95.85414,5511,,,11202 E Pine St & N 108Th E Ave,E Pine St&N 108Th E Ave,0,
36.177066,PineEvan,-95.947149,5510,,,,E Pine St&N Evanston Ave,0,
36.177112,Pine107a,-95.859005,5513,,,10769 E Pine St & N 107th E Ave,E Pine St&N 107th E Ave,0,
36.176935,Pine107a,-95.858359,5512,,,,E Pine St&N 107th E Ave,0,
36.17711,Pine89av,-95.880117,5515,,,,E Pine St&N 89th E Ave,0,
36.177001,Pine75av,-95.892686,5514,,,7520 E Pine St & N 75th E Ave,E Pine St&N 75th E Ave,0,
36.177109,Pine93av,-95.873859,5517,,,9171 E Pine St & N 93rd E Ave,E Pine St&N 93rd E Ave,0,
36.176975,Pine91av,-95.874479,5516,,,9122 E Pine St & N 91st E Ave,E Pine St&N 91st E Ave,0,
36.147697,11thGarn,-95.850881,530,,,S GARNETT RD & E 11TH ST S,11th & Garnett,0,
36.053821,AspnDtBA,-95.815459,5605,,,254 N Aspen Ave/S 145th E Ave & W Detroit St,N Aspen Ave&W Detroit,0,
36.054477,AspnDtBA,-95.81519,5604,,,319 N Aspen Ave/S 145th E Ave & W Detroit St,N Aspen Ave&W Detroit,0,
36.171897,CinMrsh,-95.993416,5607,,,1221 N Cincinnati Ave & E Marshall St,Martin Luther King Jr Blvd &E Marshall St,0,
36.169458,CinLatP,-95.993585,5606,,,1122 N Cincinnati Ave & E Latimer Pl,Martin Luther King Jr Blvd & E Latimer Pl,0,
36.15622,129aSkDr,-95.833483,5601,,,216 S 129th E Ave & E Skelly Dr,S 129th E Ave&E Skelly Dr,0,
36.159674,129aAdm,-95.833496,5600,,,60 S 129th E Ave & E Admiral Pl,S 129th E Ave&E Admiral Pl,0,
36.057596,AspnGree,-95.815198,5603,,,609 N Aspen Ave/S 145th E Ave & W Greeley St,N Aspen Ave&W Greeley,0,
36.060085,AspnKeBA,-95.815472,5602,,,826 N Aspen Ave/S 145th E Ave & W Kenosha St/E 71st St S,N Aspen Ave&W Kenosha,0,
36.174132,CinNwtP,-95.993413,5609,,,1319 N Cincinnati Ave & E Newton Pl,Martin Luther King Jr Blvd &E Newton Pl,0,
36.171306,CinMrsh,-95.993616,5608,,,1192 N Cincinnati Ave & E Marshall St,Martin Luther King Jr Blvd & E Marshall St,0,
36.077783,Unio61st,-96.0116,6518,,,5917 S Union Ave & W 61St St S,S Union Ave&W 61St St S,0,
36.087497,Unio53st,-96.011603,6519,,,5225 S Union Ave & W 53Rd St S,S Union Ave&W 53Rd St S,0,
36.090231,51st33rd,-96.029637,6510,,,W 51ST ST S & S 32ND WEST AVE,S 51st S & 33rd W Ave,0,
36.07525,61st33rd,-96.029866,6511,,,,33rd W Ave. & S 61st St,0,
36.075519,33av61st,-96.029587,6512,,,S 33RD WEST AVE & W 59TH ST S,S 33rd W Ave & W 61st st S,0,
36.089826,51st33av,-96.028921,6513,,,W 51ST ST S & S 33RD WEST AVE,51st St S & 33rd W Ave,0,
36.092775,UniW49st,-96.011597,6514,,,S UNION AVE W & W 48TH ST S,W 49th ST S& S UNION AVE,0,
36.06854,Unio66st,-96.011608,6515,,,6563 S Union Ave & W 66Th St S,S Union Ave&W 66Th St S,0,
36.071372,Unio63st,-96.011621,6516,,,6273 S Union Ave & W 63Rd St S,S Union Ave&W 63Rd St S,0,
36.072465,Unio62st,-96.011623,6517,,,6195 S Union Ave & W 62Nd St S,S Union Ave&W 62Nd St S,0,
36.104151,Pe41SB,-95.975878,426,,,S PEORIA AVE & E 41ST ST S,S Peoria Ave&E 41st St S,0,
36.156468,2stFkft,-95.985303,6413,,,526 E 2Nd St S & S Frankfort Ave,E 2Nd St S&S Frankfort Ave,0,
36.022154,AqJHIEx,-95.957865,6424,,,186 S Aquarium Dr & Aquarium Dr Holiday Inn Express,Aquarium Dr & Holiday Inn,0,
36.058822,73st109a,-95.852904,6425,,,10753 E 73Rd St S & S 109Th E Ave,E 73Rd St S&S 109Th E Ave,0,
36.184934,PeoVirg,-95.97578,6426,,,,N Peoria Ave&E Virgin St,0,
36.172024,PeoLatP,-95.975543,6427,,,1233 N Peoria Ave & E Latimer Pl,N Peoria Ave&E Latimer Pl,0,
36.147576,10stCinS,-95.984723,6420,,,232 E 10Th St S & S Cincinnati Ave,E 10Th St S&S Cincinnati Ave,0,
36.147315,10stCinN,-95.985986,6421,,,,E 10Th St S&S Cincinnati Ave,0,
36.14715,10stBos,-95.986055,6422,,,,E 10Th St S&S Boston Ave,0,
36.060874,71stElw,-95.990316,6428,,,265 W 71St St S & S Elwood Ave,W 71St St S&S Elwood Ave,0,
36.067142,Mem66st,-95.886556,6429,,,6630 S Memorial Dr & E 66Th St S,S Memorial Dr&E 66Th St S,0,
36.095043,Lew47st,-95.958051,6169,,,4718 S Lewis Ave & E 47Th St S,S Lewis Ave&E 47Th St S,0,
36.089267,Lew51st,-95.958057,6168,,,5120 S Lewis Ave & E 51St St S,S Lewis Ave&E 51Nd St S,0,
36.151258,Lew6st,-95.958285,6161,,,642 S Lewis Ave & E 6Th St S,6th St S & Lewis,0,
36.060391,Lew71st,-95.957973,6160,,,7124 S Lewis Ave & E 71St St S,S Lewis Ave&E 71St St S,0,
36.067173,Lew66Pl,-95.957994,6163,,,6636 S Lewis Ave & E 66Th Pl S,S Lewis Ave&E 66Th Pl S,0,
36.062823,Lew69st,-95.957965,6162,,,6954 S Lewis Ave & E 69Th St S,S Lewis Ave&E 69Th St S,0,
36.07905,Lew57st,-95.95806,6165,,,5872 S Lewis Ave & E 57Th St S,S Lewis Ave&E 57Th St S,0,
36.074811,Lew61st,-95.958075,6164,,,6116 S Lewis Ave & E 61St St S,S Lewis Ave&E 61St St S,0,
36.086487,Lew52st,-95.958054,6167,,,5264 S Lewis Ave & E 52Nd St S,S Lewis Ave&E 52Nd St S,0,
36.081279,Lew56Pl,-95.958034,6166,,,5614 S Lewis Ave & E 56Th Pl S,S Lewis Ave&E 56Th Pl S,0,
36.190014,FLAG 55,-95.890038,6769,,,,AIRPORT,0,
36.207128,FLAG 54,-95.984956,6768,,,,OU WAYMAN TISDALE CLINIC,0,
36.207929,FLAG 53,-96.002416,6767,,,,OSAGE CASINO (EB),0,
36.206773,FLAG 52,-95.995067,6766,,,,WESTVIEW VIEW CLINIC - TO DOWNTOWN,0,
36.151711,ARDBAY2,-95.993471,6765,,,,ARRIVE DAS BAY 2,0,
36.206966,OU CLIN,-95.98499,6763,,,,OU CLINIC,0,
36.152095,ADAS10,-95.993461,6762,,,,ARRIVE DAS BAY 10,0,
36.151899,ARDBAY7,-95.994013,6760,,,,ARRIVE DAS 7,0,
36.119977,Utic30Pl,-95.96758,5869,,,3021 S Utica Ave & E 30th Pl S,S Utica Ave&E 30th Pl S,0,
36.1218,Utic29st,-95.966758,5868,,,2883 S Utica Ave & E 29th St S,S Utica Ave&E 29th St S,0,
36.130811,Utic22Pl,-95.967071,5865,,,2241 S Utica Ave & E 22Nd Pl S,S Utica Ave&E 22Nd Pl S,0,
36.133397,Utic19st,-95.967378,5864,,,1998 S Utica Ave & E 19Th St S,S Utica Ave&S 21st St,0,
36.12536,UticVict,-95.967124,5867,,,2697 S Utica Ave & S Victor Ave/S Terwilleger Blvd/E 27th St S,S Utica Ave&S Victor Ave,0,
36.132643,UticTroo,-95.967241,5866,,,,S Utica Ave&S Troost Ave,0,
36.139484,Utic16st,-95.967025,5861,,,1587 S Utica Ave & E 16th St S,S Utica Ave&E 16th St S,0,
36.141045,Utic15st,-95.967047,5860,,,1463 S Utica Ave & E 15th St S,S Utica Ave&E 15th St S,0,
36.133201,Utic22st,-95.967045,5863,,,2133 S Utica Ave & E 22Nd St S,S Utica Ave&E 21st St S,0,
36.135381,Utic19st,-95.967169,5862,,,1789 S Utica Ave & E 19th St S,S Utica Ave&E 19th St S,0,
36.151208,129a7st,-95.833379,6699,,,702 S 129th E Ave & E 7th St,S 129th E Ave & E 7th St,0,
36.163629,GarnArch,-95.851274,6698,,,11200 N Garnett Rd & & E Archer Pl,N Garnett Rd & E Archer Pl,0,
36.10217,Mngo42st,-95.868779,6693,,,4201 S Mingo Rd & E 42rd St S,S Mingo Rd & E 42rd St S,0,
36.104126,Mngo41st,-95.868798,6692,,,4100 S Mingo Rd & E 41st St S,S Mingo Rd & E 41st St S,0,
36.102907,Mem42st,-95.886446,6691,,,4201 S Memorial Dr & E 42nd St S,S Memorial Dr & E 42nd St S,0,
36.099769,Mem44st,-95.886405,6690,,,4343 S Memorial Dr & E 44th St S,S Memorial Dr & E 44th St S,0,
36.163629,GarnArch,-95.851067,6697,,,153 N Garnett Rd & E archer St,N Garnett Rd & E Archer St,0,
36.118857,31st120p,-95.842513,6695,,,12048 E 31st St S & S 120th E Pl,E 31st St S & S 120th E Pl,0,
36.118864,31st116a,-95.845756,6694,,,11656 E 31st St S & S 116th E Ave,E 31st St S & S 116th E Ave,0,
36.133224,Me21N,-95.886407,153,,,N MEMORIAL DR & E 21ST ST S,S Memorial Dr&E 21st St S,0,
36.189349,CinZion,-95.99361,6457,,,2486 N Cincinnati Ave & E Zion St,Martin Luther King Jr Blvd&E Zion St,0,
36.190977,CinApch,-95.993609,6456,,,2572 N Cincinnati Ave & E Apache St,Martin Luther King Jr Blvd&E Apache St,0,
36.108045,Harv38st,-95.940131,5767,,,3785 S Harvard Ave & E 38th St S,S Harvard Ave&E 38th St S,0,
36.057646,73stWh,-95.963448,6341,,,,E 73Rd St S&S Wheeling Ave,0,
36.149717,7stBos,-95.988804,6340,,,23 E 7Th St S & S Boston Ave,7th & Main,0,
36.060756,71st109a,-95.854736,6343,,,11022 E 71St St S & S 109Th E Ave,71st St S & 109th E Ave,0,
36.060685,71stBmPl,-95.952587,6342,,,2612 E 71St St S & S Birmingham Pl,E 71St St S&S Birmingham Pl,0,
36.060896,71stWh,-95.963739,6345,,,1953 E 71St St S & S Wheeling Ave/Wallenberg Dr,E 71St St S&S Wheeling Ave,0,
36.0607,71stYa,-95.921619,6344,,,5020 E 71St St & S Yale Ave,E 71St St&S Yale Ave,0,
36.060624,71stUtic,-95.965931,6347,,,1718 E 71St St S & S Utica Ave,E 71St St S&S Utica Ave,0,
36.06065,71stWh,-95.963016,6346,,,2108 E 71St St S & S Wheeling Ave,E 71St St S&S Wheeling Ave,0,
36.060615,71stTren,-95.968369,6349,,,1628 E 71St St S & S Trenton Ave,E 71St St S&S Trenton Ave,0,
36.060896,71stVict,-95.96606,6348,,,1715 E 71St St S & S Victor Ave,E 71St St S&S Victor Ave,0,
36.116732,Lew32st,-95.958065,6187,,,,S Lewis Ave&E 32Nd St S,0,
36.200955,Lew32st,-95.958126,6186,,,3201 N Lewis Ave & E 32Nd St N,N Lewis Ave&E 32Nd St N,0,
36.202758,LewMHKB,-95.95831,6185,,,3324 N Lewis Ave & Mohawk Blvd,N Lewis Ave&Mohawk Blvd,0,
36.11394,Lew34st,-95.958187,6184,,,3426 S Lewis Ave & E 34Th St S,S Lewis Ave&E 34Th St S,0,
36.11446,Lew34st,-95.958081,6183,,,3383 S Lewis Ave & E 34Th St S,S Lewis Ave&E 34Th St S,0,
36.113151,Lew35st,-95.958031,6182,,,3491 S Lewis Ave & E 35Th St S,S Lewis Ave&E 35Th St S,0,
36.111221,Lew36st,-95.958143,6181,,,3608 S Lewis Ave & E 36Th St S,S Lewis Ave&E 36Th St S,0,
36.111868,Lew36st,-95.958034,6180,,,3577 S Lewis Ave & E 36Th St S,S Lewis Ave&E 36Th St S,0,
36.195439,Lew29st,-95.958124,6189,,,2901 N Lewis Ave & E 29Th St N,N Lewis Ave&E 29Th St N,0,
36.119258,Lew31st,-95.958071,6188,,,3055 S Lewis Ave & E 31St St S,S Lewis Ave&E 31St St S,0,
36.133174,21stYork,-95.961707,5289,,,2118 E 21st St S & S Yorktown Ave,E 21st St S&S Yorktown Ave,0,
36.133342,21stYork,-95.962399,5288,,,2071 E 21st St S & S Yorktown Ave,E 21st St S&S Yorktown Ave,0,
36.133516,21stSher,-95.905223,5281,,,6274 E 21st St S & S Sheridan Rd,E 21st St S&S Sheridan Rd,0,
36.133338,21stSher,-95.904035,5280,,,6508 E 21st St S & S Sheridan Rd,E 21st St S&S Sheridan Rd,0,
36.133378,21stUtic,-95.967679,5283,,,1587 E 21ST ST S & S UTICA AVE,E 21ST ST S&S UTICA AVE,0,
36.133525,21st68av,-95.903516,5282,,,6518 E 21st St S & S 68Th E Ave,E 21st St S&S 68Th E Ave,0,
36.133253,21stVand,-95.924827,5285,,,,E 21st St S&S Vandalia Ave,0,
36.133229,21stUtic,-95.965993,5284,,,1920 E 21st St S & S Utica Ave,E 21st St S&S Utica Ave,0,
36.133238,21stYa,-95.922066,5287,,,4920 E 21st St S & S Yale Ave,E 21st St S&S Yale Ave,0,
36.133194,21stWh,-95.963498,5286,,,1994 E 21st St S & S Wheeling Ave/S Xanthus Ave,E 21st St S&S Wheeling Ave,0,
36.147868,11st73av,-95.89504,5049,,,7352 E 11th St S & S 73rd E Ave,E 11th St S&S 73rd E Ave,0,
36.148071,11st73av,-95.896095,5048,,,7172 E 11th St S & S 73rd E Ave,E 11th St S&S 73rd E Ave,0,
36.147867,11st71av,-95.897033,5047,,,7118 E 11th St S & S 71st E Ave,E 11th St S&S 71st E Ave,0,
36.148048,11st71av,-95.898149,5046,,,6988 E 11th St S & S 71st E Ave,E 11th St S&S 71st E Ave,0,
36.147873,11st69av,-95.899748,5045,,,6916 E 11th St S & S 69th E Ave,E 11th St S&S 69th E Ave,0,
36.148061,11st71av,-95.900003,5044,,,6904 E 11th St S & S 71St E Ave,E 11th St S&S 71St E Ave,0,
36.148052,11st67av,-95.902568,5043,,,6588 E 11th St S & S 67th E Ave,E 11th St S&S 67th E Ave,0,
36.14811,11st127a,-95.835757,5042,,,,E 11th St S&S 127th E Ave,0,
36.147952,11st124a,-95.837027,5041,,,,E 11th St S&S 124th E Ave,0,
36.147939,11st120a,-95.842937,5040,,,11948 E 11th St S & S 120th E Ave,E 11th St S&S 120th E Ave,0,
36.148521,Det10st,-95.984166,6239,,,,S Detroit Ave&E 10Th St S,0,
36.059457,Gntt71st,-95.85113,6238,,,S Garnett Rd/S 113Th E Ave & E 71St St S/W Kenosha St,S Garnett Rd & 73rd St S,0,
36.12936,Jack23st,-95.999528,6235,,,2326 S Jackson Ave & W 23Rd St S,S Jackson Ave&W 23Rd St S,0,
36.127273,Jack24st,-95.999511,6234,,,2440 S Jackson Ave & W 23Rd St S,S Jackson Ave&W 24TH St S,0,
36.149854,Hous4st,-95.998857,6236,,,431 S Houston Ave & W 4Th St S,S Houston Ave&W 4Th St S,0,
36.086345,Lew53st,-95.957889,6231,,,5283 S Lewis Ave & E 53Rd St S,S Lewis Ave&E 53Rd St S,0,
36.079285,Lew59st,-95.957887,6230,,,,S Lewis Ave&E 59Th St S,0,
36.043647,Lew83st,-95.957704,6233,,,8137 S Lewis Ave & E 83Rd St S,S Lewis Ave&E 83Rd St S,0,
36.08852,Lew52st,-95.957878,6232,,,5155 S Lewis Ave & E 52Nd St S,S Lewis Ave&E 52Nd St S,0,
36.132882,Bd21SB,-95.98871,3250,,,S BOULDER AVE & W 21ST ST S,S Boulder Ave W & W 21st St S,0,
36.176957,Pine/Mem,-95.886448,1944,,,N MEMORIAL DR & E PINE ST,Pine & Memorial,0,
36.177029,PiYaEB,-95.922115,3257,,,N YALE AVE & E PINE ST,E Pine St&N Yale Ave,0,
36.132798,21UtSB,-95.96679,1490,,,S UTICA AVE & E 21ST ST S,E 21st St S&S Utica Ave,0,
36.160866,Adm85av,-95.883577,5460,,,8459 E Admiral Pl & S 85Th E Ave,E Admiral Pl&S 85Th E Ave,0,
36.160808,Adm109a,-95.854902,5463,,,10825 E Admiral Pl & S 109th E Ave,E Admiral Pl&S 109th E Ave,0,
36.160539,Adm106p,-95.857522,5462,,,E Admiral Pl & N 106Th E Pl/S 106th E Pl,E Admiral Pl& 106Th E Pl,0,
36.160895,Adm67av,-95.903022,5465,,,6637 E Admiral Pl & N 67Th E Ave/S 67th E Ave,E Admiral Pl&N 67Th E Ave,0,
36.160593,Adm117a,-95.846136,5464,,,11722 E Admiral Pl & S 117th E Ave,E Admiral Pl&S 117th E Ave,0,
36.160885,Adm69av,-95.900465,5467,,,6843 E Admiral Pl & S 69th E Ave,E Admiral Pl&S 69th E Ave,0,
36.160653,Adm68av,-95.901465,5466,,,6718 E Admiral Pl & S 68th E Ave/N 67Th E Ave,E Admiral Pl&S 68th E Ave,0,
36.160653,Adm72av,-95.896528,5469,,,7218 E Admiral Pl & S 72nd E Ave,E Admiral Pl&S 72nd E Ave,0,
36.160665,Adm69av,-95.899123,5468,,,6988 E Admiral Pl & S 69Th E Ave,E Admiral Pl&S 69Th E Ave,0,
36.133335,21stIrvg,-95.910844,5267,,,,E 21st St S&S Irvington Ave,0,
36.13319,21stHarv,-95.939525,5266,,,,E 21st St S&S Harvard Ave,0,
36.133224,21stGary,-95.941936,5265,,,3212 E 21st St S & S Gary Ave,E 21st St S&S Gary Ave,0,
36.133387,21stGntt,-95.850262,5264,,,11350 E 21st St S & S Garnett Rd,E 21st St S&S Garnett Rd,0,
36.133316,21stFul,-95.913923,5263,,,5535 E 21st St S & S Fulton Ave,E 21st St S&S Fulton Ave,0,
36.133226,21stFlor,-95.943944,5262,,,3114 E 21st St S & S Florence Ave,E 21st St S&S Florence Ave,0,
36.133344,21stFlor,-95.945011,5261,,,3084 E 21st St S & S Florence Ave,E 21st St S&S Florence Ave,0,
36.133209,21stColu,-95.947261,5260,,,,E 21st St S&S Columbia Ave,0,
36.036109,Le88SB,-95.954687,3200,,,S LEWIS AVE & E MAGNOLIA DR,S Lewis Ave & E 88th St S,0,
36.133144,21stLew,-95.957259,5268,,,2442 E 21st St S & S Lewis Ave,E 21st St S&S Lewis Ave,0,
36.071069,BassAlby,-95.792038,5672,,,101 E Bass Pro Dr & W Albany St,Bass Pro Shop,0,
36.036304,HL CRSTS,-95.864723,5674,,,8801 S 101st E Ave & E 81St St S/UNNAMED St,S 101st E Ave&E 81St St S,0,
36.156279,129a5st,-95.833184,5675,,,195 S 129th E Ave & E 5Th St/E 4th St,S 129th E Ave&E 5Th St,0,
36.091791,129a51st,-95.833078,5676,,,5051 S 129th E Ave & E 51st St S/W Omaha St,S 129th E Ave&E 51st St S,0,
36.152565,129a7st,-95.833209,5677,,,591 S 129th E Ave & E 7th St S,S 129th E Ave&E 7th St S,0,
36.094117,129aStaF,-95.833083,5678,,,4885 S 129th E Ave & State Farm Blvd,S 129th E Ave&State Farm Blvd,0,
36.132716,137a21st,-95.82353,5679,,,2220 S 137th E Ave & E 21st St S,S 137th E Ave&E 21st St S,0,
36.092498,49stUnio,-96.011663,6509,,,S UNION AVE W & W 48TH ST S,S Union Ave&W 49Th St S,0,
36.147909,7stjack,-95.999792,6508,,,W 7TH ST S & S JACKSON AVE,W. 7th st s & S Jackson Ave,0,
36.102755,OU41stYa,-95.925531,6503,,,S YALE AVE & E 47TH ST S,41st & Yale-OU Schusterman Center,0,
36.248092,65stQuak,-95.974073,6502,,,N QUAKER AVE & E 65TH ST N,65th St N &  Quaker Ave,0,
36.103141,41stYaOU,-95.92565,6501,,,AMOCO RD & E 41ST ST S,41st & Yale-OU Schusterman Center,0,
36.0562,THillW,-96.004478,6500,,,,Tulsa Hills Shopping Center,0,
35.976775,Insp chr,-95.797091,6507,,,S 161ST EAST AVE & S ELM PL,Indian Springs Church,0,
36.147071,OSU HOSP,-95.999284,6506,,,S JACKSON AVE & W 7TH ST S,OSU Medical Hospital,0,
36.177144,PiMeW,-95.886808,3805,,,N MEMORIAL DR & E PINE ST,E Pine St&Memorial,0,
36.223464,Dnvr49st,-95.998942,6437,,,4811 N Denver Ave & W 49Th St N,N Denver Ave&W 49Th St N,0,
36.221961,Dnvr47st,-95.998972,6436,,,4701 N Denver Ave & W 47Th St N,N Denver Ave&W 47Th St N,0,
36.220537,46stBos,-95.995394,6435,,,61 E 46Th St N & N Boston Ave,E 46Th St N&N Boston Ave,0,
36.220573,46stDet,-95.991464,6434,,,,E 46Th St N&N Detroit Ave,0,
36.145389,Dnvr11st,-95.992409,5708,,,1150 S Denver Ave & W 11th St S,S Denver Ave&W 11Th St S,0,
36.145136,Dnvr12st,-95.992207,5709,,,1181 S Denver Ave & W 12th St S,S Denver Ave&W 12th St S,0,
36.149409,Lew8st,-95.958277,6431,,,844 S Lewis Ave & E 8Th St S,S Lewis Ave&E 8Th St S,0,
36.144228,Lew13st,-95.958153,6430,,,,S Lewis Ave&E 13Th St S,0,
36.01761,AspnNOrl,-95.815179,5704,,,3477 S Aspen Ave/S 145th E Ave & W New Orleans St/E 101st St S,S Aspen Ave&W New Orleans,0,
36.007622,AspnAust,-95.815223,5705,,,4359 S Aspen Ave/S 145th E Ave & W Austin St,S Aspen Ave&W Austin,0,
36.009786,AspnVick,-95.815221,5706,,,4261 S Aspen Ave/S 145th E Ave & W Vicksburg Pl,S Aspen Ave&W Vicksburg,0,
36.134424,Bld21st,-95.988855,5707,,,1801 S Boulder Ave & W 21st St S,S Boulder Ave&W 21st St S,0,
36.012961,AspnQtco,-95.815341,5700,,,4046 S Aspen Ave/S 145th E Ave & W Quantico St,S Aspen Ave&W Quantico,0,
36.032659,AspnWash,-95.815176,5701,,,1859 S Aspen Ave/S 145th E Ave & W Washington St/E 91st St S,S Aspen Ave&W Washington,0,
36.046614,AspnHous,-95.815192,5702,,,691 S Aspen Ave/S 145th E Ave & W Houston St/E 81st St S,S Aspen Ave/S 145th E Ave&W Houston,0,
36.045881,AspnHous,-95.815518,5703,,,838 S Aspen Ave/S 145th E Ave & W Houston St/E 81st St S,S Aspen Ave&W Houston,0,
36.068242,66_MING,-95.868486,6758,,,E 66TH ST S & S MINGO RD,E 66th St S&S Mingo Rd,0,
36.151666,ARDBAY3,-95.993684,6759,,,,ARRIVE DAS BAY 3,0,
35.988589,121_ELM,-95.79723,6753,,,,121st St S & Elm,0,
36.104325,41stBmPl,-95.952761,6750,,,2601 E 41st St S & S Birmingham Pl,E 41st St S & S Birmingham Pl,0,
36.016905,101S/Elm,-95.79691,6751,,,,101ST S & ELM PL (EAST SIDE),0,
36.156594,FLAG50,-95.971674,6756,,,,E 3RD ST S&S ROCKFORD AVE,0,
36.058642,FLAG51,-96.002819,6757,,,S OLYMPIA AVE,Tulsa Hills Shopping Center,0,
36.102677,Mngo42st,-95.868544,5818,,,4185 S Mingo Rd & E 42nd St S,S Mingo Rd&E 42nd St S,0,
36.099144,Mngo44Pl,-95.868542,5819,,,4353 S Mingo Rd & E 44th Pl S,S Mingo Rd&E 44th Pl S,0,
36.15005,Mem9st,-95.886586,5811,,,783 S Memorial Dr & E 9th St S,S Memorial Dr&E 9th St S,0,
36.161242,SherAdm,-95.904489,5812,,,29 N Sheridan Rd & E Admiral Pl,N Sheridan Rd&E Admiral Pl,0,
36.120483,MemSkDr,-95.886417,5814,,,,S Memorial Dr&E Skelly Dr,0,
36.147582,Mem11st,-95.886803,5815,,,1118 S Memorial Dr & E 11th St S,S Memorial Dr&E 11th St S,0,
36.243002,Ci61SB,-95.993561,1,,,N.CINCINNATI AVE & E 61ST ST N,MLK Jr Blvd  & 61st St N,0,
36.089779,51stDar,-95.917279,5925,,,5340 E 51st St S & S Darlington Ave,E 51st St S&S Darlington Ave,0,
36.08995,51stFul,-95.915846,5926,,,5467 E 51st St S & S Fulton Ave,E 51st St S&S Fulton Ave,0,
36.089739,51stHarv,-95.938445,5927,,,3448 E 51st St S & S Harvard Ave,E 51st St S&S Harvard Ave,0,
36.155641,2stDet,-95.987718,5920,,,316 E 2nd St S & S Detroit Ave,E 2nd St S&S Detroit Ave,0,
36.154615,3stDet,-95.987913,5923,,,,E 3rd St S&S Detroit Ave,0,
36.089917,51stMari,-95.937001,5928,,,3587 E 51st St S & S Marion Ave,E 51st St S&S Marion Ave,0,
36.089787,51stHud,-95.913039,5929,,,5712 E 51st St S & S Hudson Ave,E 51st St S&S Hudson Ave,0,
36.146416,10MaWB,-95.987252,2713,,,S MAIN ST & E 10TH ST S,10th & Main,0,
36.147917,11stErie,-95.91707,5078,,,5375 E 11th St S & S Erie Ave,E 11th St S&S Erie Ave,0,
36.147741,11stEvan,-95.947201,5079,,,2984 E 11th St S & S Evanston Ave,E 11th St S&S Evanston Ave,0,
36.147883,11stColu,-95.951969,5072,,,2669 E 11th St S & S Columbia Ave,E 11th St S&S Columbia Ave,0,
36.147757,11stColu,-95.951268,5073,,,2710 E 11th St S & S Columbia Ave,E 11th St S&S Columbia Ave,0,
36.147894,11stCant,-95.919389,5070,,,5169 E 11th St S & S Canton Ave,E 11th St S&S Canton Ave,0,
36.148059,10stElg,-95.983895,5076,,,307 E 10Th St S & S Elgin Ave,E 10Th St S&S Elgin Ave,0,
36.148,10stDet,-95.983452,5077,,,318 E 10Th St S & S Detroit Ave,E 10Th St S&S Detroit Ave,0,
36.147817,11stCant,-95.917933,5074,,,5288 E 11th St S & S Canton Ave/S Darlington Ave,E 11th St S&S Canton Ave,0,
36.147886,11stDel,-95.949501,5075,,,2789 E 11th St S & S Delaware Ave,E 11th St S&S Delaware Ave,0,
36.147803,Bos10st,-95.986592,6249,,,929 S Boston Ave & E 10Th St S,S Boston Ave&E 10Th St S,0,
36.184221,ViRoEB,-95.971741,2151,,,,Virgin & Rockford,0,
36.03653,Del88st,-95.9489,6240,,,8782 S Delaware Ave & E 88Th St St,S Delaware Ave&E 88Th St St,0,
36.027881,Del95st,-95.94885,6241,,,9471 S Delaware Ave/E 96Th St S & E 95Th St S,S Delaware Ave & E 96Th St S,0,
36.033958,Del90st,-95.948817,6242,,,8983 S Delaware Ave & E 90Th St S,S Delaware Ave&E 90Th St S,0,
36.150913,Cin6st,-95.987082,6243,,,642 S Cincinnnati Ave & E 6Th St S,S Cincinnnati Ave&E 6Th St S,0,
36.141117,BLD15THS,-95.988388,6244,,,S Cheyenne Ave & W 5Th St,BOULDER & 15TH E,0,
36.150976,Bld5st,-95.991065,6245,,,511 S Boulder Ave & W 5Th St S,5th & Boulder,0,
36.145188,Bld12st,-95.988408,6246,,,1171 S Boulder Ave & W 12Th St S,S Boulder Ave&W 12Th St S,0,
36.145087,Bld12st,-95.988564,6247,,,1180 S Boulder Ave & W 12Th St S,S Boulder Ave&W 12Th St S,0,
36.104234,41stCuP,-95.949865,5380,,,2752 E 41st St S & S Columbia Pl,E 41st St S&S Columbia Pl,0,
36.104496,41stDar,-95.918724,5381,,,5114 E 41st St S & S Darlington Ave,E 41st St S&S Darlington Ave,0,
36.104299,41stDar,-95.916922,5382,,,5230 E 41st St S & S Darlington Ave,E 41st St S&S Darlington Ave,0,
36.104324,41stDel,-95.949407,5383,,,2777 E 41st St S & S Delaware Ave,E 41st St S&S Delaware Ave,0,
36.104359,41stDelP,-95.948257,5384,,,2829 E 41st St S & S Delaware Pl,E 41st St S&S Delaware Pl,0,
36.104377,41stFlor,-95.944018,5385,,,3109 E 41st St S & S Florance Ave,E 41st St S&S Florance Ave,0,
36.104234,41stFlor,-95.943689,5386,,,3114 E 41st St S & S Florence Ave,E 41st St S&S Florence Ave,0,
36.104245,41stFloP,-95.94191,5387,,,3152 E 41st St S & S Florence Pl,E 41st St S&S Florence Pl,0,
36.10459,41stGntt,-95.85225,5388,,,11189 E 41st St S & S Garnett Rd,S Garnett Rd&E 41st St S,0,
36.104413,41stHarv,-95.940623,5389,,,3187 E 41st St S & S Harvard Ave,S Harvard Ave&E 41st St S,0,
36.127287,137/24pl,-95.823415,1952,,,S 137TH E AVE & E 24TH PL,S 137th E Ave &E 24th Pl,0,
36.13255,Le21SB,-95.957798,826,,,S LEWIS AVE & E 22ND ST S,Lewis & 21st St S,0,
36.104467,FLAG19,-95.9041,6605,,,E 41ST ST S & S 68TH EAST AVE,E 41ST ST S&S SHERIDAN RD,0,
36.162776,123AR,-95.83969,5498,,,185 E Archer St & N 124th E Ave/N 123Rd E Ave,N 123rd E Ave&E Archer St,0,
36.15771,ArchBos,-95.992253,5499,,,,E Archer St&N Boston Ave,0,
36.191539,ApchUrba,-95.924879,5494,,,4612 E Apache St & N Urbana Ave,E Apache St&N Urbana Ave,0,
36.191687,ApchYa,-95.923196,5495,,,4673 E Apache St & N Yale Ave,E Apache St&N Yale Ave,0,
36.191501,ApchYa,-95.922155,5496,,,4906 E Apache St & N Yale Ave,Yale & Apache,0,
36.191539,ApchYork,-95.961397,5497,,,2126 E Apache St & N Yorktown Ave,E Apache St&N Yorktown Ave,0,
36.191531,ApchMari,-95.93369,5490,,,,E Apache St&N Marion Ave,0,
36.19167,ApchNHvn,-95.933838,5491,,,,E Apache St&N New Haven Ave,0,
36.191538,ApchOswe,-95.931679,5492,,,4026 E Apache St & N Oswego Ave,E Apache St&N Oswego Ave,0,
36.191663,ApchUrba,-95.925461,5493,,,4589 E Apache St & N Urbana Ave,E Apache St&N Urbana Ave,0,
36.133372,21st92av,-95.873032,5252,,,9214 E 21st St S & S 92nd E Ave,E 21st St S&S 92nd E Ave,0,
36.13338,21st99av,-95.865825,5253,,,9914 E 21st St S & S 99th E Ave,E 21st St S&S 99th E Ave,0,
36.193949,TCC NE,-95.938692,795,,,N HARVARD AVE & E 30TH ST N,Tulsa Community College - NE Campus,0,
36.133373,21st91av,-95.875243,5251,,,,E 21st St S&S 91st E Ave,0,
36.133297,21stCin,-95.983121,5256,,,220 E 21st St S & S Cincinnati Ave,E 21st St S&S Cincinnati Ave,0,
36.133366,21stColu,-95.951207,5257,,,2691 E 21st St S & S Columbia Ave,E 21st St S&S Columbia Ave,0,
36.133177,21stAtl,-95.955927,5254,,,2502 E 21st St S & S Atlanta Ave,E 21st St S&S Atlanta Ave,0,
36.133341,21stBmAv,-95.953987,5255,,,2583 E 21st St S & S Birmingham Ave,E 21st St S&S Birmingham Ave,0,
36.133186,21stBmAv,-95.951259,5258,,,2686 E 21st St S & S Birmingham Ave,E 21st St S&S Birmingham Ave,0,
36.133297,21stDar,-95.917748,5259,,,,E 21st St S&S Darlington Ave,0,
36.182241,SherTecm,-95.904499,5663,,,1907 N Sheridan Rd & E Tecumsah St,N Sheridan Rd&E Tecumsah St,0,
36.179459,SherRead,-95.904662,5662,,,1658 N Sheridan Rd & E Reading St,N Sheridan Rd&E Reading St,0,
36.180088,SherRead,-95.904502,5661,,,1713 N Sheridan Rd & E Reading St,N Sheridan Rd&E Reading St,0,
36.178703,SherQuee,-95.904679,5660,,,1584 N Sheridan Rd & E Queen St,N Sheridan Rd&E Queen St,0,
36.191205,XanPApch,-95.964386,5667,,,2578 N Xanthus Ave & E Apache St,N Xanthus Ave&E Apache St,0,
36.176645,SherPine,-95.904664,5666,,,1482 N Sheridan Rd & E Pine St,N Sheridan Rd&E Pine St,0,
36.184142,SherVirg,-95.904687,5665,,,1990 N Sheridan Rd & E Virgin St,N Sheridan Rd&E Virgin St,0,
36.181874,SherTecm,-95.904685,5664,,,1870 N Sheridan Rd & E Tecumseh St,N Sheridan Rd&E Tecumseh St,0,
36.188211,XanPYng,-95.963512,5669,,,2376 N Xanthus Ave & E Young St,N Xanthus Ave&E Young St,0,
36.186472,XanPWdrC,-95.963586,5668,,,2242 N Xanthus Ave & E Woodrow Ct,N Xanthus Ave&E Woodrow Ct,0,
36.136162,SW19st,-96.006886,6538,,,1725 Southwest Blvd & W 19th St S,Southwest Blvd&W 19th St S,0,
36.137933,SW17st,-96.006834,6539,,,1683 Southwest Blvd & W 17Th St S,Southwest Blvd&W 17Th St S,0,
36.154591,4stFkft,-95.98423,6402,,,528 E 4Th St S & S Frankfort Ave,E 4Th St S&S Frankfort Ave,0,
36.154114,4stElg,-95.98549,6403,,,428 E 4Th St S & S Elgin Ave,E 4Th St S&S Elgin Ave,0,
36.155361,4stKeno,-95.981976,6400,,,820 E 4Th St S & S Kenosha Ave,E 4Th St S&S Kenosha Ave,0,
36.150591,3stHous,-95.999044,6401,,,676 W 3Rd St & S Houston Ave,W 3Rd St&S Houston Ave,0,
36.155474,3stFkft,-95.985528,6406,,,473 E 3Rd St S & S Frankfort Ave,E 3Rd St S&S Frankfort Ave,0,
36.018266,ElBANOrl,-95.797316,5719,,,3351 S Elm Pl/S 161st E Ave & W New Orleans St/E 101st St S,S Elm Pl&W New Orleans,0,
36.021664,ElBAFuls,-95.797578,5718,,,2970 S Elm Pl/S 161st E Ave & W Fulton St,S Elm Pl&W Fulton St,0,
36.022082,ElBAIthc,-95.797327,5717,,,2917 S Elm Pl/S 161st E Ave & W Ithica St,S Elm Pl&W Ithaca St,0,
35.976984,ElBAFred,-95.797247,5716,,,7815 S Elm Pl/S 161st E Ave & W Fredricksburg St,S Elm Pl/S 161st E Ave&W Fredricksb,0,
36.154188,3stCin,-95.989127,6408,,,175 E 3Rd St S & S Cincinnati Ave,E 3Rd St S&S Cincinnati Ave,0,
36.155525,3stFkft,-95.984871,6409,,,526 E 3Rd St S & S Frankfort Ave,E 3Rd St S&S Frankfort Ave,0,
36.015358,ElBAQtco,-95.79728,5713,,,3787 S Elm Pl/S 161st E Ave & W Quantico St Reasors Broken Arrow,S Elm Pl/S 161st E Ave&W Quantico S,0,
36.140933,Dnvr15st,-95.992323,5712,,,1471 S Denver Ave & W 15th St S,S Denver Ave&W 15th St S,0,
36.142926,Dnvr14st,-95.992217,5711,,,1351 S Denver Ave & W 14th St S,S Denver Ave&W 14th St S,0,
36.143396,Dnvr13st,-95.992384,5710,,,1314 S Denver Ave & W 13th St S,S Denver Ave&W 13th St S,0,
36.229495,Peo52st,-95.975653,6744,,,5130 N Peoria Ave & E 52nd St N,N Peoria Ave & E 52nd St N,0,
36.166031,IndpElg,-95.991503,6747,,,266 E Independence St & N Elgin Ave,E Independence St & N Elgin Ave,0,
36.22014,Hart46st,-95.984595,6746,,,4532 N Hartford Ave & E 46th St N,N Hartford Ave & E 46th St N,0,
36.137699,Bld17st,-95.988561,6741,,,1700 S Boulder Ave W & W 17th St S,S Boulder Ave W & W 17th St S,0,
36.13943,Bld16st,-95.988531,6740,,,1600 S Boulder Ave W & W 16th St S,S Boulder Ave W & W 16th St S,0,
36.134431,Bld21st,-95.988856,6743,,,1867 S Boulder Park Dr & W 21st St S,S Boulder Park Dr & W 21st St S,0,
36.133476,21stCin,-95.98314,6742,,,,E 21st St S & S Cincinatti Ave,0,
36.151885,Mem7st,-95.886595,5809,,,,S Memorial Dr&E 7th St S,0,
36.153638,Mem5Pl,-95.886596,5808,,,489 S Memorial Dr & E 5th Pl S,S Memorial Dr&E 5th Pl S,0,
36.11164,Mem35st,-95.886715,5803,,,3624 S Memorial Dr & E 35th St S,S Memorial Dr&E 35th St S,0,
36.114142,Mem33st,-95.886727,5802,,,3338 S Memorial Dr & E 33rd St S,S Memorial Dr&E 33rd St S,0,
36.116143,Mem32st,-95.886729,5801,,,,S Memorial Dr&E 32nd St S,0,
36.116694,Mem32st,-95.88647,5800,,,,S Memorial Dr&E 32Nd St S,0,
36.154817,Mem4Pl,-95.886821,5807,,,432 S Memorial Dr & E 4th Pl S,S Memorial Dr&E 4th Pl S,0,
36.105559,Mem40st,-95.886695,5806,,,4024 S Memorial Dr & E 40th St S,S Memorial Dr&E 40th St S,0,
36.105128,Mem41st,-95.886454,5805,,,4055 S Memorial Dr & E 41st St S,S Memorial Dr&E 41st St S,0,
36.157416,Mem4Pl,-95.886583,5804,,,275 S Memorial Dr & E 4Th Pl S,S Memorial Dr&E 4Th Pl S,0,
36.089921,51stTol,-95.927304,5937,,,4389 E 51st St S & S Toledo Ave,E 51st St S&S Toledo Ave,0,
36.089785,51stRich,-95.928686,5935,,,4138 E 51st St S & S Richmond Ave,E 51st St S&S Richmond Ave,0,
36.089906,51stOswe,-95.931822,5934,,,3985 E 51st St S & S Oswego Ave,E 51st St S&S Oswego Ave,0,
36.089897,51stOswe,-95.934512,5933,,,3807 E 51st St S & S Oswego Ave,E 51st St S&S Oswego Ave,0,
36.089898,51stOswe,-95.933015,5932,,,3909 E 51st St S & S Oswego Ave,E 51st St S&S Oswego Ave,0,
36.089935,51stJop,-95.909759,5931,,,5885 E 51st St S & S Joplin Ave,E 51st St S&S Joplin Ave,0,
36.08979,51stJop,-95.909098,5930,,,5914 E 51st St S & S Joplin Ave,E 51st St S&S Joplin Ave,0,
36.089934,51stVand,-95.925033,5939,,,4675 E 51st St S & S Vandalia Ave/E 50Th St,E 51st St S&S Vandalia Ave,0,
36.089783,51stTol,-95.926487,5938,,,4512 E 51st St S & S Toledo Ave,E 51st St S&S Toledo Ave,0,
36.148139,11Uti,-95.967461,4156,,,S UTICA AVE & E 11TH ST S,E 11th St S&S Utica Ave,0,
36.147888,11stBrdn,-95.921249,5065,,,5017 E 11th St S & S Braden Ave,E 11th St S&S Braden Ave,0,
36.148134,11st93av,-95.873701,5064,,,9171 E 11th St S & S 93rd E Ave,E 11th St S&S 93rd E Ave,0,
36.147756,11stBmAv,-95.953466,5067,,,2606 E 11th St S & S Birmingham Ave,E 11th St S&S Birmingham Ave,0,
36.147889,11stAtl,-95.956211,5066,,,2484 E 11th St S & S Atlanta Ave,E 11th St S&S Atlanta Ave,0,
36.148141,11st91av,-95.875265,5061,,,8987 E 11th St S & S 91st E Ave,E 11th St S&S 91st E Ave,0,
36.147848,11st89av,-95.877412,5060,,,8911 E 11th St S & S 89th E Ave,E 11th St S&S 89th E Ave,0,
36.148143,11stMngo,-95.870581,5063,,,9511 E 11th St S & S Mingo Rd,E 11th St S&S Mingo Rd,0,
36.14785,11st89av,-95.875039,5062,,,8994 E 11th St S & S 89Th E Ave,E 11th St S&S 89Th E Ave,0,
36.147771,11stBrdn,-95.919707,5069,,,5146 E 11th St S & S Braden Ave,E 11th St S&S Braden Ave,0,
36.147879,11stBmPl,-95.953158,5068,,,2611 E 11th St S & S Birmingham Pl,E 11th St S&S Birmingham Pl,0,
36.060985,71stCant,-95.920007,6259,,,5115 E 71St St S & S Canton Ave,E 71St St S&S Canton Ave,0,
36.060972,71stEvan,-95.947134,6258,,,2875 E 71St St S & S Evantston Ave,E 71St St S&S Evantston Ave,0,
36.060997,71stOswe,-95.931827,6253,,,3979 E 71St St S & S Oswego Ave/S Pittsburg Ave,E 71St St S&S Oswego Ave,0,
36.060985,71stRich,-95.928081,6252,,,4369 E 71St St S & S Richmond Ave,E 71St St S&S Richmond Ave,0,
36.060974,71stYa,-95.923229,6251,,,4889 E 71St St S & S Yale Ave,E 71St St S&S Yale Ave,0,
36.046922,81stLew,-95.960878,6250,,,2017 S 81St St & S Lewis Ave,S 81St St&S Lewis Ave,0,
36.060978,71stFlor,-95.943256,6257,,,3079 E 71St St S & S Florence Ave/E 71St S,E 71St St S&S Florence Ave,0,
36.060981,71stGran,-95.914582,6256,,,5557 E 71St St S & S Granite Ave,E 71St St S&S Granite Ave,0,
36.060979,71stIrvg,-95.911917,6255,,,,E 71St St S&S Irvington Ave,0,
36.060948,71stLew,-95.9585,6254,,,2377 E 71St St S & S Lewis Ave,71st & Lewis,0,
36.104541,41stMem,-95.887403,5393,,,7963 E 41st St S & S Memorial Dr,E 41st St S&S Memorial Dr,0,
36.104135,41stLew,-95.957537,5392,,,2420 E 41st St S & S Lewis Ave,E 41st St S&S Lewis Ave,0,
36.104438,41stFul,-95.914613,5390,,,5437 E 41st St S & S Fulton Ave,E 41st St S&S Fulton Ave,0,
36.104228,41stPeo,-95.975216,5397,,,1320 E 41st St S & S Peoria Ave,E 41st St S&S Peoria Ave,0,
36.104366,41stMngo,-95.867554,5396,,,9794 E 41st St S & S Mingo Rd,E 41st St S&S Mingo Rd,0,
36.104553,41stMngo,-95.86918,5395,,,9383 E 41st St S & S Mingo Rd,E 41st St S&S Mingo Rd,0,
36.10435,41st83av,-95.88118,5394,,,8542 E 41st St/Broken Arrow Expy & S 83Rd E Ave,E 41st St S & 83rd E Ave,0,
36.104237,41stQuin,-95.973345,5399,,,1404 E 41st St S & S Quincy Ave,E 41st St S&S Quincy Ave,0,
36.104369,41stRock,-95.973552,5398,,,1401 E 41st St S & S Rockford Ave/S Quincy Ave,E 41st St S&S Rockford Ave,0,
36.191729,ApchLew,-95.95847,5489,,,2281 E Apache St & N Lewis Ave,Apache & Lewis,0,
36.191526,ApchLew,-95.956667,5488,,,2442 E Apache St & N Lewis Ave,E Apache St&N Lewis Ave,0,
36.191669,ApchNHvn,-95.938847,5487,,,3435 E Apache St & N New Haven Ave,E Apache St&N New Haven Ave,0,
36.191509,ApchHarv,-95.939945,5486,,,3332 E Apache St & N Harvard Ave,E Apache St&N Harvard Ave,0,
36.191677,ApchFlor,-95.94363,5485,,,2939 E Apache St & N Florence Ave,E Apache St&N Florence Ave,0,
36.191505,ApchCuP,-95.944912,5484,,,2896 E Apache St & N Columbia Pl,E Apache St&N Columbia Pl,0,
36.191687,ApchFlor,-95.945843,5483,,,2861 E Apache St & N Florence Ave,E Apache St&N Florence Ave,0,
36.191516,ApchCuP,-95.950044,5482,,,2712 E Apache St & N Columbia Pl,E Apache St&N Columbia Pl,0,
36.191691,ApchColu,-95.951743,5481,,,2683 E Apache St & N Columbia Ave,E Apache St&N Columbia Ave,0,
36.16056,Adm101a,-95.86243,5480,,,10174 E Admiral Pl & S 101St E Ave,E Admiral Pl&S 101St E Ave,0,
36.133369,21st85av,-95.881871,5249,,,8530 E 21st St S & S 85th E Ave,E 21st St S&S 85th E Ave,0,
36.176267,GrnwOkP,-95.986727,5629,,,1435 N Greenwood Ave & E Oklahoma Pl,N Greenwood Ave&E Oklahoma Pl,0,
36.133395,21st76av,-95.892526,5245,,,,E 21st St S&S 76th E Ave,0,
36.133383,21st71av,-95.896781,5244,,,7090 E 21st St S & S 71st E Ave,E 21st St S&S 71st E Ave,0,
36.133409,21st79av,-95.888387,5247,,,7846 E 21st St S & S 79th E Ave,E 21st St S&Memorial,0,
36.133402,21st77av,-95.890938,5246,,,7710 E 21st St S & S 77th E Ave,E 21st St S&S 77th E Ave,0,
36.133381,21st68av,-95.90059,5241,,,6798 E 21st St S & S 68th E Ave,E 21st St S&S 68th E Ave,0,
36.133364,21st131a,-95.830308,5240,,,13112 E 21st St S & S 131St E Ave,E 21st St S&S 131St E Ave,0,
36.133384,21st67av,-95.897857,5243,,,6978 E 21st St S & S 67Th E Ave,E 21st St S&S 67Th E Ave,0,
36.133522,21st69av,-95.900555,5242,,,6798 E 21st St S & S 69th E Ave,E 21st St S&S 69th E Ave,0,
36.089945,51st31av,-96.027612,6578,,,3105 W 51St St S & S 31St W Ave,W 51St St S&S 31St W Ave,0,
36.150329,Ch5S,-95.992557,63,,,,Cheyenne/5th S-NW,0,
36.223209,Dnvr48st,-95.999039,6475,,,4782 N Denver Ave & W 48th St N,N Denver Ave&W 48th St N,0,
36.224257,49stMa,-95.996092,6474,,,1 W/E 49Th St N & N Main St,49th St N & Main St,0,
36.140398,15Bu,-95.98782,1033,,,S BOULDER AVE & E 15TH ST S,15th & Boulder,0,
36.108921,UniP37pl,-96.011897,6521,,,3723 S Union Pl W & W 37Th Pl,S Union Pl W&W 37Th Pl,0,
36.104933,Unio41st,-96.011544,6520,,,4039 S Union Ave & W 41St St S,S 41st St & Union,0,
36.118976,SW31st,-96.007047,6523,,,3071 Southwest Blvd & W 31St St S,Southwest Blvd&W 31St St S,0,
36.11416,SW35st,-96.009021,6522,,,3341 Southwest Blvd & W 35Th S S,Southwest Blvd&W 35Th St S,0,
36.174193,SherNwtP,-95.904658,5658,,,1334 N Sheridan Rd & E Newton Pl,N Sheridan Rd&E Newton Pl,0,
36.121523,SWGWN,-96.006761,6526,,,,SOUTHWEST BLVD & GOODWILL NORTHBOUN,0,
36.126203,25stSW,-96.006541,6529,,,1206 W 25Th St S & Southwest Blvd,W 25Th St S&Southwest Blvd,0,
36.171627,SherMrsh,-95.904496,5657,,,1203 N Sheridan Rd & E Marshall St,N Sheridan Rd&E Marshall St,0,
36.165988,SherIndp,-95.904654,5654,,,782 N Sheridan Rd & E Independence St,N Sheridan Rd&E Independence St,0,
36.169043,SherKngP,-95.904484,5655,,,1041 N Sheridan Rd & E King Pl,N Sheridan Rd&E King Pl,0,
36.164544,SherEaSt,-95.904473,5652,,,601 N Sheridan Rd & E Easton St,N Sheridan Rd&E Easton St,0,
36.166748,SherIndp,-95.904475,5653,,,823 N Sheridan Rd & E Independance St,N Sheridan Rd&E Independance St,0,
36.155229,QuanArch,-96.006531,5650,,,131 N Quanah Ave & W Archer St,N Quanah Ave&W Archer St,0,
36.171991,SherMarP,-95.904638,5651,,,1208 N Sheridan Rd & E Marshall Pl,N Sheridan Rd&E Marshall Pl,0,
36.15199,DBAY11,-95.993254,2896,,,,DAS BAY 11,0,
36.177207,PiYaWB,-95.922676,1455,,,N YALE AVE & E PINE ST,E Pine St&N Yale Ave,0,
36.220312,Pe  46N,-95.975329,4085,,,N PEORIA AVE & E 46TH ST N,46th St N & Peoria,0,
36.105083,Gntt41st,-95.850946,5728,,,4027 S Garnett Rd & E 41St St S,S Garnett Rd&E 41St St S,0,
36.100137,Gntt43st,-95.851194,5729,,,4414 S Garnett Rd & E 43Rd St S,S Garnett Rd&E 43Rd St S,0,
36.148015,10stDet,-95.983456,6418,,,318 E 10Th St S & S Detroit Ave,E 10Th St S&S Detroit Ave,0,
36.155529,1stCin,-95.989975,6415,,,,E 1St St S&S Cincinnati Ave,0,
36.154569,2stBld,-95.990793,6414,,,58 E 2Nd St S & S Boulder Ave,E 2Nd St S&S Boulder Ave,0,
36.146329,10stBld,-95.988315,6417,,,W 10Th St/W 11Th St & S Boulder Ave,W 10Th St&S Boulder Ave,0,
36.155623,1stBos,-95.991511,6416,,,W 1St St S & S Boston Ave,1St St S&S Boston Ave,0,
36.200512,32stGarr,-95.985927,6411,,,,E 32Nd St N&N Garrison Ave,0,
36.107276,Gntt39st,-95.850966,5727,,,3921 S Garnett Rd & E 39Th Pl S,S Garnett Rd&E 39Th Pl S,0,
36.028133,ElBABoBA,-95.79761,5724,,,2122 S Elm Pl/S 161st E Ave & W Boston St/E 95Th St S,S Elm Pl&W Boston St/,0,
36.119795,Gntt31st,-95.850989,5725,,,3041 S Garnett Rd & E 31St St S,S Garnett Rd&E 31St St S,0,
36.075804,Un61S,-96.011556,3915,,,,Union/61st W S-SW,0,
36.092423,49WTaW,-96.009847,3912,,,,49th W/Tacoma W-NW,0,
36.061006,71ShE,-95.905176,3918,,,71st & Sheridan E -SE,E 71St St S&S Sheridan Rd,0,
36.202117,Peo33st,-95.97567,6730,,,3248 N Peoria Ave & East 33rd St N,N Peoria Ave & East 33rd St N,0,
36.205887,36stGarr,-95.986274,6731,,,558 E 36th St N & N Garrison Ave,E 36th St N & N Garrison Ave,0,
36.206025,36stGarr,-95.986332,6732,,,541 E 36th St N & N Garrison Ave,E 36th St N & N Garrison Ave,0,
36.206027,36stGarr,-95.988634,6733,,,401 E 36th St N & N Garrison Ave,E 36th St N & N Garrison Ave,0,
36.205877,36stElg,-95.989336,6734,,,400 E 36th St N & N Elgin Ave,E 36th St N & N Elgin Ave,0,
36.228346,Cin51pl,-95.993463,6735,,,5117 N Cincinati Ave & E 51st Pl N,Martin Luther King Jr Blvd & E 51st Pl N,0,
36.227806,Hart51pl,-95.984584,6736,,,5016 N Hartford Ave & E 51st Pl N,N Hartford Ave & E 51st Pl N,0,
36.231605,Cin54st,-95.993465,6737,,,5401 N Cincinati Ave & E 54th St N,Martin Luther King Jr Blvd & E 54th St N,0,
36.234029,Cin55st,-95.993467,6738,,,5501 N Cincinati Ave & E 55th Pl N,Martin Luther King Jr Blvd & E 55th Pl N,0,
36.140676,15stBos,-95.98533,6739,,,23 E 15th St S & S Boston Ave,E 15th St S & S Boston Ave,0,
36.138843,Sher17st,-95.904492,5836,,,1579 S Sheridan Rd & E 17th St S,S Sheridan Rd&E 17th St S,0,
36.137895,Sher17st,-95.904661,5837,,,1734 S Sheridan Rd & E 17th St S,S Sheridan Rd&E 17th St S,0,
36.1059,Peo39st,-95.975827,5834,,,3910 S Peoria Ave & E 39th St S,S Peoria Ave&E 39th St S,0,
36.105057,Peo41st,-95.975614,5835,,,3959 S Peoria Ave & E 41st St S,E 41st St S&S Peoria Ave,0,
36.107744,Peo38st,-95.97582,5832,,,3806 S Peoria Ave & E 38th St S,S Peoria Ave&E 38th St S,0,
36.106923,Peo39st,-95.975614,5833,,,3837 S Peoria Ave & E 39th St S,S Peoria Ave&E 39th St S,0,
36.110027,Peo37st,-95.975622,5830,,,3677 S Peoria Ave & E 37th St S,S Peoria Ave&E 37th St S,0,
36.10939,Peo37st,-95.975821,5831,,,3710 S Peoria Ave & E 37th St S,S Peoria Ave&E 37th St S,0,
36.177067,GrnwPine,-95.986735,5632,,,1501 N Greenwood Ave & E Pine St,Pine & Greenwood,0,
36.136092,Sher19st,-95.904491,5838,,,1885 S Sheridan Rd & E 19th St S,S Sheridan Rd&E 19th St S,0,
36.13587,Sher19st,-95.904658,5839,,,1906 S Sheridan Rd & E 19th St S,S Sheridan Rd&E 19th St S,0,
36.065452,Ya68st,-95.922254,5993,,,6732 S Yale Ave & E 68th St S,S Yale Ave&E 68th St S,0,
36.140872,Peo15st,-95.975554,6088,,,,S Peoria Ave&E 15Th St S,0,
36.14032,Peo15st,-95.975742,6089,,,1506 S Peoria Ave & E 15Th St S,S Peoria Ave&E 15Th St S,0,
36.137763,Peo17st,-95.9757,6086,,,1706 S Peoria Ave & E 17Th St S,S Peoria Ave&E 17Th St S,0,
36.139718,Peo16st,-95.975521,6087,,,1523 S Peoria Ave & E 16Th St S,S Peoria Ave&E 16Th St S,0,
36.158472,Peo1st,-95.975711,6084,,,118 S Peoria Ave & E 1St St S,S Peoria Ave&E 1St St S,0,
36.135933,Peo18st,-95.975713,6085,,,1810 S Peoria Ave & E 18Th St S,S Peoria Ave&E 18Th St S,0,
36.131653,Peo21Pl,-95.975612,6082,,,2195 S Peoria Ave & E 21Th Pl S,S Peoria Ave&E 21Th Pl S,0,
36.13267,Peo21st,-95.975726,6083,,,2136 S Peoria Ave & E 21St St S,S Peoria Ave&E 21St St S,0,
36.129524,Peo24Pl,-95.97572,6080,,,2418 S Peoria Ave & E 24Th Pl S,S Peoria Ave&E 24Th Pl S,0,
36.13368,Peo21st,-95.975611,6081,,,,S Peoria Ave&E 21Th St S,0,
36.152124,DBAY10,-95.993492,6648,,,319 S DENVER AVE,DAS BAY 10,0,
36.114059,MMS1,-95.888785,6649,,,7952 E 33RD ST S,MMS BAY 01,0,
36.151782,DBAY6,-95.994092,6644,,,319 S DENVER AVE,DAS BAY 06,0,
36.151899,DBAY7,-95.994013,6645,,,319 S DENVER AVE,DAS BAY 07,0,
36.151996,DBAY8,-95.993864,6646,,,319 S DENVER AVE,DAS BAY 8,0,
36.152059,DBAY9,-95.993678,6647,,,319 S DENVER AVE,DAS BAY9,0,
36.151727,DBAY2,-95.993501,6640,,,319 S DENVER AVE,DAS BAY 2,0,
36.151663,DBAY3,-95.99369,6641,,,319 S DENVER AVE,DAS BAY 03,0,
36.151617,DBAY4,-95.993882,6642,,,319 S DENVER AVE,DAS BAY 04,0,
36.151675,DBAY5,-95.99403,6643,,,319 S DENVER AVE,DAS BAY 05,0,
36.161235,EdVncu,-96.012397,5902,,,,W Edison St&N Vancouver Ave,0,
36.161361,EdWaco,-96.014114,5903,,,,W Edison St&N Waco Ave,0,
36.156175,ArchDnvr,-95.996312,5900,,,270 W Archer St & N Denver Ave,W Archer St&N Denver Ave,0,
36.16138,EdUnio,-96.011916,5901,,,,W Edison St&N Union Pl,0,
35.973885,JaspPark,-95.80248,5906,,,15529 W Jasper St/E 131st St S & S Park Ave,W Jasper St&S Park Ave,0,
35.973884,JaspElBA,-95.800151,5907,,,15791 W Jasper St/E 131st St S & S Elm Pl/S 161St E Ave,W Jasper St&S Elm Pl/S,0,
36.161197,Ed23av,-96.017526,5904,,,2214 W Edison St & N 23rd W Ave (was S),W Edison St & N 23rd W Ave,0,
36.161312,EdXeno,-96.017846,5905,,,2247 W Edison St & N Xenophon Ave,W Edison St&N 23rd W Ave,0,
35.973884,JaspShad,-95.8113,5908,,,14799 W Jasper St/E 131st St S & S Shadowood Ave/Pecan Circle,W Jasper St&S Shadowood,0,
35.973901,Jasp152a,-95.808727,5909,,,15113 W Jasper St/E 131st St S & S 152Nd E Ave,W Jasper St&S 152Nd E,0,
36.073116,StFrNB,-95.918109,3641,,,S ST FRANCIS DR & E 63RD ST S,St. Francis Hospital,0,
36.075277,61stNewP,-95.978298,6398,,,1087 E 61St St S & S Newport Ave,E 61St St S&S Newport Ave,0,
36.23501,56stFkft,-95.989562,6399,,,487 E 56Th St N & N Frankfort Ave,E 56Th St N&N Frankfort Ave,0,
36.149946,6stBld,-95.990804,6392,,,118 W 6Th St & S Boulder Ave,W 6Th St&S Boulder Ave,0,
36.070392,64stNewP,-95.979153,6393,,,1041 E 64Th St S & S Newport Ave,E 64Th St S&S Newport Ave,0,
36.151386,6stCin,-95.98684,6391,,,226 E 6Th St S & S Cincinnati Ave,E 6Th St S&S Cincinnati Ave,0,
36.075291,61stPeo,-95.976178,6396,,,1267 E 61St St S & S Peoria Ave,E 61St St S&S Peoria Ave,0,
36.075203,61stNewP,-95.977946,6397,,,1110 E 61St St S & S Newport Ave,E 61St St S&S Newport Ave,0,
36.068833,INHOFSB,-95.978182,6394,,,6674 S Newport Ave & E 66Th Pl S,S Newport Ave&E 66Th Pl S,0,
36.072537,Mad63st,-95.979637,6395,,,6241 S Madison Pl & E 63Rd St S,S Madison Pl&E 63Rd St S,0,
36.151676,CPB28av,-96.023285,5010,,,2751 Charles Page Blvd & S 28th W Ave,Charles Page Blvd&S 28th W Ave,0,
36.151155,CPB31av,-96.02584,5011,,,2974 Charles Page Blvd & S 31st W Ave,5028 E 11th St S&S 93rd E Ave,0,
36.151193,CPB31av,-96.026369,5012,,,3110 Charles Page Blvd & S 31st W Ave,Charles Page Blvd&S 31st W Ave,0,
36.150789,CPB33av,-96.028232,5013,,,3184 Charles Page Blvd & Charles Page Blvd/S 33rd W Ave,Charles Page Blvd & 33rd W Ave,0,
36.150817,CPB31av,-96.028979,5014,,,3187 Charles Page Blvd & S 31St W Ave,Charles Page Blvd&S 31St W Ave,0,
36.148089,CPB49av,-96.04754,5015,,,4924 Charles Page Blvd & S 49th W Ave,Charles Page Blvd&S 49th W Ave,0,
36.147971,CPB51av,-96.049371,5016,,,5084 Charles Page Blvd & S 51st W Ave,Charles Page Blvd&S 51st W Ave,0,
36.148104,CPB51av,-96.049789,5017,,,5106 Charles Page Blvd & S 51st W Ave,Charles Page Blvd&S 51st W Ave,0,
36.148126,CPB53av,-96.052001,5018,,,5230 Charles Page Blvd & S 53rd W Ave,Charles Page Blvd&S 53rd W Ave,0,
36.148005,CPB54av,-96.052938,5019,,,5350 Charles Page Blvd & S 54th W Ave,Charles Page Blvd&S 54th W Ave,0,
36.16579,PeoIndp,-95.975685,6266,,,800 N Peoria Ave & E Independance St,N Peoria Ave&E Independance St,0,
36.178749,PeoQuee,-95.975756,6267,,,1598 N Peoria Ave & E Queen St,N Peoria & Queen St,0,
36.067751,66stMem,-95.883349,6264,,,8370 S 66Th St & S Memorial Dr,S 66Th St&S Memorial Dr,0,
36.067901,66st85av,-95.88333,6262,,,8371 S 66Th St S & S 85Th E Ave,S 66Th St S&S 85Th E Ave,0,
36.066144,85stWHRd,-95.881551,6263,,,6767 S 85Th E Ave & Woodland Hills Rd,S 85Th E Ave&Woodland Hills Rd,0,
36.060951,71stBmPl,-95.953088,6260,,,2593 E 71St St S & S Birmingham Pl,E 71St St S&S Birmingham Pl,0,
36.060959,71stColu,-95.950329,6261,,,2691 S 71St St & S Columbia Ave,S 71St St&S Columbia Ave,0,
36.176493,PeoPine,-95.975718,6268,,,1466 N Peoria Ave & E Pine St,N Peoria Ave&E Pine St,0,
36.177438,PeoPinP,-95.975441,6269,,,1517 N Peoria Ave & E Pine Pl,N Peoria Ave&E Pine Pl,0,
36.10124,Peo43st,-95.975615,6064,,,4249 S Peoria Ave & E 43Rd St S,S Peoria Ave&E 43Rd St S,0,
36.104967,Peo39st,-95.975826,6065,,,3958 S Peoria Ave & E 39Th St S,S Peoria Ave&E 39Th St S,0,
36.104013,Peo41st,-95.975831,6066,,,4108 S Peoria Ave & E 41St St S,S Peoria Ave&E 41st St S,0,
36.103608,Peo41st,-95.975628,6067,,,4121 S Peoria Ave & E 41St  St S,S Peoria Ave&E 41St  St S,0,
36.09819,Peo45Pl,-95.975582,6060,,,4483 S Peoria Ave & E 45Th Pl S,S Peoria Ave&E 45Th Pl S,0,
36.098022,Peo45Pl,-95.975837,6061,,,4504 S Peoria Ave & E 45Th Pl S,S Peoria Ave&E 45Th Pl S,0,
36.099114,Peo44Pl,-95.975629,6062,,,4441 S Peoria Ave & E 44Th Pl S,S Peoria Ave&E 44Th Pl S,0,
36.100434,Peo43st,-95.975837,6063,,,4306 S Peoria Ave & E 43Rd St S,S Peoria Ave&E 43Rd St S,0,
36.205791,36NPeEB,-95.975209,2179,,,N PEORIA AVE & E 36TH ST N,36th St N & Peoria,0,
36.096292,Peo46st,-95.975845,6069,,,4680 S Peoria Ave & E 46th St S,S Peoria Ave&E 46th St S,0,
36.104574,41GaEB,-95.850938,3260,,,,E 41st St S&S Garnett Rd,0,
36.14788,11stWins,-95.924433,5128,,,4729 E 11th St S & S Winston Ave,E 11th St S&S Winston Ave,0,
36.147818,11stYork,-95.962162,5129,,,2058 E 11th St S & S Yorktown Ave,E 11th St S&S Yorktown Ave,0,
36.147773,11stUtic,-95.966769,5124,,,1706 E 11th St S & S Utica Ave,E 11th St S&S Utica Ave,0,
36.14776,11stVand,-95.924427,5125,,,4730 E 11th St S & S Vandalia Ave,E 11th St S&S Vandalia Ave,0,
36.147931,11stVict,-95.965968,5126,,,1721 E 11th St S & S Victor Ave,E 11th St S&S Victor Ave,0,
36.147767,11stVict,-95.965049,5127,,,1804 E 11th St S & S Victor Ave,E 11th St S&S Victor Ave,0,
36.147887,11stTol,-95.927221,5120,,,4473 E 11th St S & S Toledo Ave,E 11th St S&S Toledo Ave,0,
36.147748,11stTol,-95.926708,5121,,,4516 E 11th St S & S Toledo Ave,E 11th St S&S Toledo Ave,0,
36.14781,11stTren,-95.969513,5122,,,1606 E 11th St S & S Trenton Ave,E 11th St S&S Trenton Ave,0,
36.147952,11stUtic,-95.967788,5123,,,1669 E 11th St S & S Utica Ave,S Utica Ave&E 11th St,0,
36.046166,Le81SB,-95.957498,849,,,S LEWIS AVE & E 81ST ST S,Lewis & 81st St S,0,
36.133353,21st125a,-95.834722,5238,,,12560 E 21st St S & S 125Th E Ave,E 21st St S&S 125Th E Ave,0,
36.133357,21st129a,-95.832032,5239,,,12950 E 21st St S & S 129th E Ave,E 21st St S&S 129th E Ave,0,
36.133388,21st109a,-95.854535,5230,,,10924 E 21st St S & S 109th E  Ave,E 21st St S&S 109th E  Ave,0,
36.133392,21st111a,-95.852761,5231,,,11114 E 21st St S & S 111th E Ave,E 21st St S&S 111th E Ave,0,
36.133386,21st114a,-95.848063,5232,,,11536 E 21st St S & S 114Th E Ave,E 21st St S&S 114Th E Ave,0,
36.133389,21st117a,-95.845864,5233,,,11724 E 21st St S & S 117th E Ave,E 21st St S&S 117th E Ave,0,
36.133571,21st120a,-95.843688,5234,,,11975 E 21st St S & S 120th E Ave,E 21st St S&S 120th E Ave,0,
36.133379,21st120a,-95.843276,5235,,,12008 E 21st St S & S 120th E Ave,E 21st St S&S 120th E Ave,0,
36.133377,21st121a,-95.841317,5236,,,12114 E 21st St S & S 121st E Ave,E 21st St S&S 121st E Ave,0,
36.133363,21st123a,-95.839077,5237,,,12310 E 21st St S & S 123rd E Ave,E 21st St S&S 123rd E Ave,0,
36.133328,21BoEB,-95.988813,1593,,,W 21ST ST S & S BOULDER AVE,S Boulder Ave&W 21st St S,0,
36.156288,3stFlor,-95.943192,5344,,,3186 E 3rd St S & S Florence Ave,E 3rd St S&S Florence Ave,0,
36.156466,3stKeno,-95.982559,5345,,,769 E 3rd St S & S Kenosha Ave,E 3rd St S&S Kenosha Ave,0,
36.156633,3stLans,-95.980738,5346,,,,E 3rd St S&S Lansing Ave,0,
36.156465,3stLew,-95.957784,5347,,,2416 E 3rd St S & S Lewis Ave,E 3rd St S&S Lewis Ave,0,
36.156532,3stColu,-95.951209,5340,,,2712 E 3rd St S & S Columbia Ave,E 3rd St S&S Columbia Ave,0,
36.156377,3stDel,-95.948943,5341,,,2818 E 3rd St S & S Delaware Ave,E 3rd St S&S Delaware Ave,0,
36.156481,3stEvan,-95.947579,5342,,,2887 E 3rd St S & S Evanston Ave,E 3rd St S&S Evanston Ave,0,
36.156396,3stGary,-95.943271,5343,,,3181 E 3rd St S & S Gary Ave,E 3rd St S&S Gary Ave,0,
36.156648,3stPeo,-95.975145,5348,,,1324 E 3rd St S & S Peoria Ave,E 3rd St S&S Peoria Ave,0,
36.156774,3stQuin,-95.97393,5349,,,1385 E 3rd St S & S Quincy Ave,E 3rd St S&S Quincy Ave,0,
36.177357,LewPine,-95.958161,6146,,,1515 N Lewis Ave & E Pine St,N Lewis & Pine,0,
36.125949,SW25,-96.006588,1208,,,,Southwest Bld/25th,0,
36.155091,QuanCamr,-96.006659,5649,,,122 N Quanah Ave & W Cameron St,N Quanah Ave&W Cameron St,0,
36.159083,QuanEasP,-96.007127,5648,,,504 N Quanah Ave & W Easton Pl (was S Easton Dr),N Quanah Ave&W Easton Pl,0,
36.045888,MaBAHous,-95.790953,5641,,,752 S Main St & W Houston St/E 81st St S,S Main St&W Houston St/E 81st St S,0,
36.054335,MaBADtBA,-95.790905,5640,,,284 N Main St & W Detroit St,N Main St&W Detroit St,0,
36.038531,MaBAPitP,-95.790945,5643,,,1612 S Main St & W Pittsburg Pl,S Main St&W Pittsburg Pl,0,
36.041422,MaBAMphs,-95.790932,5642,,,1136 S Main St & W Memphis St,S Main St&W Memphis St,0,
36.034783,MaBARich,-95.79093,5645,,,,S Main St&E Richmond St,0,
36.033945,MaBAUrba,-95.790931,5644,,,1808 S Main St & W Urbana St,S Main St&W Urbana St,0,
36.160544,PitAdm,-95.931525,5647,,,,N Pittsburg Ave&E Admiral Pl,0,
36.056334,MaBAFree,-95.790882,5646,,,486 N Main St & W Freeport St,N Main St&W Freeport St,0,
36.205994,Le36NN,-95.957892,3107,,,N LEWIS AVE & E 36 ST N,36th St N & Lewis Ave,0,
36.131592,Gntt22st,-95.850996,5735,,,2121 S Garnett Rd & E 22nd St S,S Garnett Rd&E 22nd St S,0,
36.133057,Gntt21st,-95.851231,5734,,,2110 S Garnett Rd & E 21st St S,S Garnett Rd&E 21st St S,0,
36.130105,Gntt23st,-95.850994,5737,,,2305 S Garnett Rd & E 23rd St S,S Garnett Rd&E 23rd St S,0,
36.130086,Gntt23st,-95.851229,5736,,,2304 S Garnett Rd & E 23rd St S,S Garnett Rd&E 23rd St S,0,
36.148902,Gntt11st,-95.851023,5731,,,1011 S Garnett Rd & E 11th St S,S Garnett Rd&E 11th St S,0,
36.147344,Gntt11st,-95.851259,5730,,,1126 S Garnett Rd & E 11th St S,S Garnett Rd&E 11th St S,0,
36.135766,Gntt17Pl,-95.851229,5733,,,1810 S Garnett Rd & E 17th Pl S/E 19Th St S,S Garnett Rd&E 17th Pl S,0,
36.138805,Gntt16st,-95.851238,5732,,,1640 S Garnett Rd & E 16th St S,S Garnett Rd&E 16th St S,0,
36.126908,Gntt26st,-95.850998,5739,,,2587 S Garnett Rd & E 26th St S,S Garnett Rd&E 26th St S,0,
36.126202,Gntt26st,-95.85123,5738,,,2638 S Garnett Rd & E 26th St S,S Garnett Rd&E 26th St S,0,
36.237904,Cin58st,-95.993611,6468,,,5770 N Cincinnati Ave & E 58th St N,Martin Luther King Jr Blvd &E 58th St N,0,
36.234911,56stFkft,-95.987715,6469,,,,E 56th St N&N Frankfort Ave,0,
36.175179,MaOkSt,-95.996933,6460,,,1390 N Main St & W Oklahoma St,N Main St&W Oklahoma St,0,
36.173129,MaNwtS,-95.996936,6461,,,1288 N Main St & W Newton St,N Main St&W Newton St,0,
36.171269,MaMrsh,-95.996934,6462,,,1190 N Main St & W Marshal St,N Main St&W Marshal St,0,
36.168925,MaMrsh,-95.996934,6463,,,1102 N Main St & W Marshall St,N Main St&W Marshall St,0,
36.166786,MaJasp,-95.996933,6464,,,884 N Main St & W Jasper St,N Main St&W Jasper St,0,
36.165036,MaHask,-95.99696,6465,,,726 N Main St & W Haskell Pl,N Main St&W Haskell Pl,0,
36.178476,CinQuee,-95.993638,6466,,,1582 N Cincinnati Ave & E Queen St,Martin Luther King Jr Blvd&E Queen St,0,
36.175395,SherOkSt,-95.90449,5659,,,1425 N Sheridan Rd & E Oklahoma St,N Sheridan Rd&E Oklahoma St,0,
36.177087,PineBmAv,-95.953022,6723,,,2600 E Pine St & N Birmiingham Pl,E Pine St & N Birmiingham Pl,0,
36.177203,PineLou,-95.937607,6722,,,3601 E Pine St & N Louisville Ave,E Pine St & N Louisville Ave,0,
36.177054,PineVand,-95.924456,6721,,,4704 E Pine St & N Vandalia Ave,E Pine St & N Vandalia Ave,0,
36.192519,MHKBFkft,-95.988738,6727,,,500 Mohawk Blvd & N Frankfort Ave,Mohawk Blvd & N Frankfort Ave,0,
36.192401,MHKBCin,-95.993066,6726,,,200 Mohawk Blvd & N Cincinatti Ave E,Mohawk Blvd & Martin Luther King Jr Blvd,0,
36.17568,CinOkla,-95.993635,6725,,,1400 N Cincinatti Ave & E Oklahoma Pl,Martin Luther King Jr Blvd  & E Oklahoma Pl,0,
36.180573,PeoRead,-95.975665,6724,,,1717 N Peoria Ave & E Reading St,N Peoria Ave & E Reading St,0,
36.205831,Lew36st,-95.95834,6729,,,3520 N Lewis Ave & E 36th St N,N Lewis Ave & E 36th St N,0,
36.197526,Lew30st,-95.958078,6728,,,3009 N Lewis Ave & East 30th St N,N Lewis Ave & East 30th St N,0,
36.095541,Mngo47Pl,-95.868522,5821,,,4641 S Mingo Rd & E 47th Pl S,S Mingo Rd&E 47th Pl S,0,
36.097616,Mngo45Pl,-95.868761,5820,,,4432 S Mingo Rd & E 45th Pl S,S Mingo Rd&E 45th Pl S,0,
36.117647,Peo31Pl,-95.975649,5823,,,3139 S Peoria Ave & E 31st Pl S,S Peoria Ave&E 31st Pl S,0,
36.118495,Peo31st,-95.97583,5822,,,3106 S Peoria Ave & E 31St St S,S Peoria Ave&E 31St St S,0,
36.116464,Peo32st,-95.975775,5825,,,3182 S Peoria Ave & E 32nd St S,S Peoria Ave&E 32nd St S,0,
36.116704,Peo32st,-95.975609,5824,,,3171 S Peoria Ave & E 32nd St S,S Peoria Ave&E 32nd St S,0,
36.115364,Peo33st,-95.975587,5827,,,3261 S Peoria Ave & E 33rd St S,S Peoria Ave&E 33rd St S,0,
36.114486,Peo34st,-95.975416,5826,,,3361 S Peoria Ave & E 34Th St S,S Peoria Ave&E 34Th St S,0,
36.111212,Peo36st,-95.975804,5829,,,3608 S Peoria Ave & E 36th St S,S Peoria Ave&E 36th St S,0,
36.11206,Peo36st,-95.975589,5828,,,3565 S Peoria Ave & E 36th St S,S Peoria Ave&E 36th St S,0,
36.123561,Peo28st,-95.975764,6099,,,2802 S Peoria Ave & E 28Th St,S Peoria Ave&E 28Th St,0,
36.126778,Peo26Pl,-95.975644,6098,,,,S Peoria Ave&E 26Th Pl S,0,
36.144026,Peo13st,-95.975727,6091,,,,S Peoria Ave&E 13Th St S,0,
36.144694,Peo13st,-95.97554,6090,,,1277 S Peoria Ave & E 13Th St S,S Peoria Ave&E 13Th St S,0,
36.14612,Peo12st,-95.975719,6093,,,1190 S Peoria Ave & E 12Th St S,S Peoria Ave&E 12Th St S,0,
36.14613,Peo12st,-95.975528,6092,,,1191 S Peoria Ave & E 12Th St S,S Peoria Ave&E 12Th St S,0,
36.1488,Peo11st,-95.975535,6095,,,,S Peoria Ave&E 11Th St S,0,
36.124523,Peo27Pl,-95.975622,6097,,,2711 S Peoria Ave & E 27Th Pl S,S Peoria Ave&E 27Th Pl S,0,
36.138466,Peo17st,-95.97555,6096,,,1653 S Peoria Ave & E 17Th St S,S Peoria Ave&E 17Th St S,0,
36.113781,MMS 10,-95.888596,6658,,,7952 E 33RD ST S,MMS Bay10,0,
36.113889,MBAY8,-95.889145,6656,,,7952 E 33RD ST S,MMS Bay8,0,
36.114062,MMS 07,-95.889147,6655,,,7952 E 33RD ST S,MMS BAY 07,0,
36.114062,MBAY6,-95.888976,6654,,,7952 E 33RD ST S,MMS BAY 06,0,
36.113918,MMS5,-95.888974,6653,,,7952 E 33RD ST S,MMS BAY 05,0,
36.113755,MMS4,-95.888971,6652,,,7952 E 33RD ST S,MMS BAY 04,0,
36.113752,MMS3,-95.888783,6651,,,7952 E 33RD ST S,MMS BAY 03,0,
36.113915,MBAY2,-95.888784,6650,,,7952 E 33RD ST S,MMS Bay2,0,
36.136786,Harv17st,-95.940475,5919,,,1706 S Harvard Ave & E 17Th St S,S Harvard Ave&E 17Th St S,0,
36.120474,Peo30st,-95.975781,5918,,,3004 S Peoria Ave & E 30Th St S,S Peoria Ave&E 30Th St S,0,
36.032007,WashDate,-95.795915,5915,,,506 W Washington St/E 91st St S & S Date Ave,W Washington St&S Date,0,
36.031995,WashAsh,-95.793039,5914,,,308 W Washington St/E 91st St S & S Ash Pl/S 165Th E Ave,W Washington St&S Ash Pl,0,
36.031816,WashElBA,-95.796616,5916,,,545 W Washington St/E 91st St S & S Elm Pl/ S 161st E Ave,W Washington St&S Elm Pl,0,
36.017299,NOrlJuni,-95.800349,5911,,,805 W New Orleans St/E 101st St S & S Juniper Ave,W New Orleans St&S Juniper,0,
35.973886,Jasp154a,-95.805128,5910,,,15375 W Jasper St/E 131st St S & S 154Th E Ave,W Jasper St&S 154Th E,0,
36.017266,NOrlAspn,-95.814744,5913,,,2151 W New Orleans St/E 101st St S & S Aspen Ave/S 145th E Ave,W New Orleans St&S Aspen,0,
36.017336,NOrlOak,-95.808725,5912,,,W New Orleans St/E 101st St S & S Oak Ave,W New Orleans St&S Oak,0,
36.147847,7stJack,-95.999149,6387,,,842 E 7Th St S & S Jackson Ave,E 7Th St S&S Jackson Ave,0,
36.060741,71st85av,-95.879421,6381,,,8764 E 71St St & S 85th E Ave,E 71St St&S 85th E Ave,0,
36.061015,71stMem,-95.888802,6380,,,7891 E 71St St & S Memorial Dr,E 71St St&S Memorial Dr,0,
36.060998,71st69av,-95.901885,6382,,,6689 E 71St St & S 69th E Ave,E 71St St&S 69th E Ave,0,
36.147993,7stJack,-95.999657,6388,,,873 E 7Th St S & S Jackson Ave,E 7Th St S&S Jackson Ave,0,
36.119015,31st88av,-95.878479,5003,,,8777 E 31st St S & S 88th E Ave,E 31st St S&S 88th E Ave,0,
36.118876,31st89av,-95.875804,5002,,,8930 E 31st St S & S 89th E Ave,E 31st St S&S 89th E Ave,0,
36.118851,31st85av,-95.882033,5001,,,8460 E 31st St S & S 85th E Ave,E 31st St S&S 85th E Ave,0,
36.133423,21stDar,-95.917512,5000,,,5275 E 21st St S & S Darlington Ave,E 21st St S&S Darlington Ave,0,
36.148057,CPB58av,-96.056206,5007,,,5710 Charles Page Blvd & S 58Th W Ave,Charles Page Blvd&S 58Th W Ave,0,
36.151509,CPB33av,-96.023376,5006,,,2762 Charles Page Blvd & S 33Rd W Ave,Charles Page Blvd&S 33Rd W Ave,0,
36.14439,11st65av,-96.061933,5005,,,6128 W 11th St S & S 65Th W Ave,W 11th St S&S 65Th W Ave,0,
36.129126,137a24st,-95.823549,5004,,,2391 S 137th E Ave & E 24th St S,S 137th E Ave & E 24th St S,0,
36.151949,CPBGiRd,-96.020669,5009,,,2527 Charles Page Blvd & Gilcrease Museum Rd/S 25Th W Ave,Gilcrease Drive & Charles Page Blvd,0,
36.137675,eCPBAdam,-96.097877,5008,,,9132 E Charles Page Blvd & S Adams Rd,E Charles Page Blvd&S Adams Rd,0,
36.171567,PeoPine,-95.975668,6271,,,1196 N Peoria Ave & E Pine St,N Peoria Ave&E Pine St,0,
36.169409,PeoLatS,-95.975695,6270,,,1066 N Peoria Ave & E Latimer St,N Peoria Ave&E Latimer St,0,
36.166486,PeoIndp,-95.975529,6273,,,855 N Peoria Ave & E Independence St,N Peoria Ave&E Independence St,0,
36.167316,PeoKngS,-95.975696,6272,,,906 N Peoria Ave & E King St,N Peoria Ave&E King St,0,
36.163927,PeoHskS,-95.975676,6275,,,566 N Peoria Ave & E Haskell St,N Peoria Ave&E Haskell St,0,
36.164458,PeoHskS,-95.975515,6274,,,705 N Peoria Ave & E Haskell St,N Peoria Ave&E Haskell St,0,
36.245423,Peo61st,-95.975435,6277,,,6269 N Peoria Ave & E 61St St N,N Peoria Ave&E 61St St N,0,
36.16051,PeoAdm,-95.975666,6276,,,28 N Peoria Ave & E Admiral Pl,N Peoria Ave&E Admiral Pl,0,
36.235494,Peo56st,-95.97547,6279,,,5639 N Peoria Ave & E 56Th St N,N Peoria Ave&E 56Th St N,0,
36.241224,Peo60st,-95.975475,6278,,,6021 N Peoria Ave & E 60Th St N,N Peoria Ave&E 60Th St N,0,
36.121756,Peo29Pl,-95.975747,6077,,,2924 S Peoria Ave & E 29Th Pl S,S Peoria Ave&E 29Th Pl S,0,
36.122685,Peo29st,-95.975646,6076,,,2861 S Peoria Ave & E 29Th St S,S Peoria Ave&E 29Th St S,0,
36.157484,Peo2st,-95.97568,6075,,,218 S Peoria Ave & E 2Nd St S,Peoria & 2nd St S,0,
36.157989,Peo2st,-95.975535,6074,,,167 S Peoria Ave & E 2Nd St S,S Peoria Ave&E 2Nd St S,0,
36.119064,Peo31st,-95.975621,6073,,,3085 S Peoria Ave & E 31St St S,S Peoria Ave&E 31St St S,0,
36.114554,Peo33Pl,-95.975834,6071,,,3360 S Peoria Ave & E 33Rd Pl S,S Peoria Ave&E 33Rd Pl S,0,
36.112008,Peo36st,-95.97561,6070,,,3573 S Peoria Ave & E 36Th St S,S Peoria Ave&E 36Th St S,0,
36.128621,Peo25st,-95.975602,6079,,,2481 S Peoria Ave & E 25Th St S,S Peoria Ave&E 25Th St S,0,
36.12697,Peo26st,-95.975723,6078,,,,S Peoria Ave&E 26Th St S,0,
36.090437,Sh51SB,-95.904678,3299,,,,S Sheridan Rd&E 51st St S,0,
36.14057,15stBalt,-95.985953,5139,,,64 E 15th St S & S Baltimore Ave,E 15th St S&S Baltimore Ave,0,
36.140475,15stAtl,-95.955766,5138,,,2512 E 15th St S & S Atlanta Ave,E 15th St S&S Atlanta Ave,0,
36.140622,15stAtl,-95.956252,5137,,,2483 E 15th St S & S Atlanta Ave,E 15th St S&S Atlanta Ave,0,
36.140654,15stAlgh,-95.921608,5136,,,4981 E 15th St S & S Allegheny Ave,E 15th St S&S Allegheny Ave,0,
36.140617,15stFloP,-95.944308,5135,,,3109 E 15th St S & S Florence Pl,E 15th St S&S Florence Pl,0,
35.973884,Jasp152a,-95.807464,5134,,,15187 W Jasper St/E 131st St & S 152nd E Ave,W Jasper St&S 152nd E Av,0,
36.147759,11stYork,-95.961301,5133,,,2124 E 11th St S & S Yorktown Ave,E 11th St S&S Yorktown Ave,0,
36.147736,11stYa,-95.922099,5132,,,4928 E 11th St S & S Yale Ave,E 11th St S&S Yale Ave,0,
36.147908,11stYa,-95.923008,5131,,,4855 E 11th St S & S Yale Ave,E 11th St S&S Yale Ave,0,
36.14791,11stXanP,-95.962925,5130,,,2021 E 11th St S & S Xanthus Pl,E 11th St S&S Xanthus Pl,0,
36.133373,21st107a,-95.856956,5229,,,10702 E 21st St S & S 107th E Ave,E 21st St S&S 107th E Ave,0,
36.133426,21stBrdn,-95.921362,5228,,,4953 E 21st St S & S Braden Ave,E 21st St S&S Braden Ave,0,
36.133579,21st85av,-95.885359,5223,,,8219 E 21st St S & S 85Th E Ave,E 21st St S&S 85Th E Ave,0,
36.133353,21stOswe,-95.934832,5222,,,,E 21st St S&S Oswego Ave,0,
36.133484,21stMpwd,-95.907178,5221,,,6193 E 21st St S & S Maplewood Ave,E 21st St S&S Maplewood Ave,0,
36.13334,21stLew,-95.958611,5220,,,2279 E 21st St S & S Lewis Ave,E 21st St S&S Lewis Ave,0,
36.133383,21stWh,-95.965105,5227,,,1934 E 21st St S & S Wheeling Ave,E 21st St S&S Wheeling Ave,0,
36.13337,21stPit,-95.931842,5226,,,,E 21st St S&S Pittsburg Ave,0,
36.133436,21stPeo,-95.975978,5225,,,1279 E 21st St S & S Peoria Ave,E 21st St S&S Peoria Ave,0,
36.133401,21stNorf,-95.9793,5224,,,1076 E 21st St S & S Norfolk Ave,E 21st St S&S Norfolk Ave,0,
36.089868,Le51N,-95.957469,745,,,S LEWIS AVE & E 51ST ST S,Lewis & 51st St S,0,
36.156533,3stXanA,-95.963143,5357,,,2024 E 3rd St S & S Xanthus Ave,E 3rd St S&S Xanthus Ave,0,
36.156722,3stXanA,-95.963724,5356,,,1979 E 3rd St S & S Xanthus Ave,E 3rd St S&S Xanthus Ave,0,
36.156589,3stUtic,-95.966574,5355,,,1748 E 3rd St S & S Utica Ave,E 3rd St S&S Utica Ave,0,
36.156752,3stUtic,-95.967972,5354,,,1659 E 3rd St S & S Utica Ave,E 3rd St S&S Utica Ave,0,
36.156616,3stTren,-95.968928,5353,,,1616 E 3rd St S & S Trenton Ave,E 3rd St S&S Trenton Ave,0,
36.156742,3stTren,-95.969589,5352,,,1589 E 3rd St S & S Trenton Ave,E 3rd St S&S Trenton Ave,0,
36.15663,3Ro,-95.97196,5351,,,1478 E 3rd St S & S Quincy Ave,E 3rd ST S& Rockford Ave,0,
36.156758,3Ro,-95.971886,5350,,,1485 E 3rd St S & S Rockford Ave,E 3RD ST S& Rockford Ave,0,
36.104571,41st87av,-95.881637,5359,,,8485 E 41st St S & S 87Th E Ave,E 41st St S&S 87Th E Ave,0,
36.156679,3stZuni,-95.961081,5358,,,2189 E 3rd St S & S Zunis Ave,E 3rd St S&S Zunis Ave,0,
36.104247,Ha41NB,-95.939697,1697,,,S HARVARD AVE & E 41ST ST S,S Harvard Ave&E 41st St S,0,
36.160586,Adm101a,-95.864875,5461,,,10106 E Admiral Pl & S 101st E Ave,E Admiral Pl&S 101st E Ave,0,
36.031643,ElBAWash,-95.797614,5723,,,1911 S Elm Pl/S 161st E Ave & W Washington St/ E 91st St S,S Elm Pl&W Washington,0,
36.026427,ElBAVaBA,-95.797583,5720,,,2510 S Elm Pl/S 161st E Ave & W Vandever Blvd,S Elm Pl&W Vandever B,0,
36.02617,ElBAEdge,-95.797341,5721,,,2617 S Elm Pl/S 161st E Ave & W Edgewater St,S Elm Pl&W Edgewater,0,
36.114045,Gntt34st,-95.850983,5726,,,,S Garnett Rd&E 34th St S,0,
36.12187,Gntt29st,-95.851239,5740,,,2840 S Garnett Rd & E 29th St S,S Garnett Rd&E 29th St S,0,
36.121959,Gntt29st,-95.851004,5741,,,2827 S Garnett Rd & E 29th St S,S Garnett Rd&E 29th St S,0,
36.118107,Gntt31st,-95.851249,5742,,,3156 S Garnett Rd & E 31st St S,S Garnett Rd&E 31st St S,0,
36.112378,Gntt34st,-95.851218,5743,,,3446 S Garnett Rd & E 34th St S,S Garnett Rd&E 34th St S,0,
36.156482,Gntt3st,-95.851267,5744,,,314 S Garnett Rd & E 3rd St S,S Garnett Rd&E 3rd St S,0,
36.156843,Gntt3st,-95.851102,5745,,,201 S Garnett Rd & E 3rd St S,S Garnett Rd&E 3rd St S,0,
36.103852,Gntt41st,-95.851205,5746,,,4120 S Garnett Rd & E 41st St S,S Garnett Rd&E 41st St S,0,
36.101545,Gntt43st,-95.851192,5747,,,4220 S Garnett Rd & E 43rd St S,S Garnett Rd&E 43rd St S,0,
36.150932,Gntt7st,-95.85123,5748,,,726 S Garnett Rd & E 7th St S,S Garnett Rd&E 7th St S,0,
36.151386,Gntt11st,-95.851084,5749,,,709 S Garnett Rd & E 11Th St S,S Garnett Rd&E 11Th St S,0,
36.156846,2stGrnw,-95.984137,6412,,,626 E 2Nd St S & S Greenwood Ave,E 2Nd St S&S Greenwood Ave,0,
36.184235,VirgTren,-95.968451,5586,,,16666 E Virgin St & N Trenton Ave,E Virgin St&N Trenton Ave,0,
36.184325,VirgUtic,-95.967915,5584,,,1693 E Virgin St & N Utica Ave,E Virgin St&N Utica Ave,0,
36.184359,VirgXanA,-95.965503,5585,,,1839 E Virgin St & N Xanthus Ave,E Virgin St&N Xanthus Ave,0,
36.184214,VirgStLu,-95.970717,5582,,,1562 E Virgin St & N St Louis Ave,E Virgin St&N St Louis Ave,0,
36.184315,VirgUtic,-95.969598,5583,,,1615 E Virgin St & N Utica Ave,E Virgin St&N Utica Ave,0,
36.184202,VirgQuin,-95.973102,5580,,,1426 E Virgin St & N Quincy Ave,E Virgin St&N Quincy Ave,0,
36.18429,VirgRock,-95.97249,5581,,,1477 E Virgin St & N Rockford Ave,Virgin & Rockford,0,
36.225666,Hart49Pl,-95.984582,6473,,,,N Hartford Ave&E 49Th Pl N,0,
36.22935,Hart52Pl,-95.984581,6471,,,5214 N Hartford Ave & E 52Nd Pl N,N Hartford Ave&E 52Nd Pl N,0,
36.234578,Hart56st,-95.984599,6470,,,5580 N Hartford Ave & E 56th St N,56th St N & Hartford,0,
36.220444,46stChey,-95.997825,6476,,,,W 46th St N&N Cheyenne Ave,0,
36.175222,GiMuGiRd,-96.020583,5588,,,1400 Gilcrease Museum & N Gilcrease Museum Rd/N 25Th W Ave,Gilcrease Museum&N Gilcrease Museum,0,
36.152094,GiRdCPB,-96.020254,5589,,,377/2401 S Gilcrease Museum Rd/S 25Th W Ave & Charles Page Blvd,S 25Th W Ave & Charles Page Blvd,0,
36.120396,Harv30st,-95.940414,6718,,,3000 S Harvard Ave & E 30th St S,S Harvard Ave & E 30th St S,0,
36.11818,Harv31st,-95.94039,6719,,,3112 S Harvard Ave & E 31st St S,S Harvard Ave & E 31st St S,0,
36.143811,Harv13st,-95.940486,6716,,,1300 S Harvard Ave & E 13th St S,S Harvard Ave & E 13th St S,0,
36.133222,21stLou,-95.936114,6717,,,3664 E 21st St S & S Louisville Ave,E 21st St S & S Louisville Ave,0,
36.147592,Harv11st,-95.940494,6714,,,1100 S Harvard Ave & E 11th St S,S Harvard Ave&E 11Th St S,0,
36.133564,Harv21st,-95.940218,6715,,,1943 S Harvard Ave & E 21st St S,S Harvard Ave&E 21st St S,0,
36.160912,AdmLkwd,-95.910057,6712,,,5931 E Admiral Pl & N lakewood Ave,E Admiral Pl & N lakewood Ave,0,
36.155124,4plPitt,-95.931807,6713,,,3929 E 4th Pl S & S Pittsburg Ave,E 4th Pl S & S Pittsburg Ave,0,
36.140739,15stSher,-95.908175,6710,,,6101 E 15th St S & S Sheridan Rd,E 15th St S & S Sheridan Rd,0,
36.140589,15stJop,-95.908373,6711,,,6116 E 15th St S & S Joplin Ave,E 15th St S & S Joplin Ave,0,
36.016565,101/Elm,-95.797626,4131,,,S ELM PL & W NEW ORLEANS ST,101st S & Elm,0,
36.060877,Ken/Aspe,-95.814779,4132,,,N ASPEN AVE & W KENOSHA ST,N Aspen Ave&W Kenosha,0,
36.06089,Ken/Main,-95.79037,4133,,,N MAIN ST & E KENOSHA ST,Kenosha & Main,0,
36.000792,TreeTop,-95.800706,4134,,,S HICKORY AVE & E JEFFERSON ST,TreeTop Apartments,0,
36.045594,SC/TCC,-95.863307,4135,,,,Tulsa Community College South Campus,0,
36.021109,AspnGary,-95.815428,5692,,,S Aspen Ave/S 145th E Ave & W Gary St,S Aspen Ave&W Gary St,0,
36.0439,AspnLoBA,-95.815218,5693,,,1121 S Aspen Ave/S 145th E Ave & W Louisville St,S Aspen Ave&W Louisville,0,
36.049244,AspnFtW,-95.815215,5690,,,595 S Aspen Ave/S 145th E Ave & W Ft Worth St,S Aspen Ave&W Ft Wort,0,
36.021586,AspnGary,-95.815183,5691,,,2891 S Aspen Ave/S 145th E Ave & W Gary St,S Aspen Ave/S 145th E Ave&W Gary St,0,
36.014581,AspnQtco,-95.815221,5696,,,3783 S Aspen Ave/S 145th E Ave & W Quantico St,S Aspen Ave&W Quantico,0,
36.036999,AspnQnBA,-95.815461,5697,,,S Aspen Ave/S 145th E Ave & W Quincy St,S Aspen Ave&W Quincy,0,
36.042289,AspnLoBA,-95.815485,5694,,,1434 S Aspen Ave/S 145th E Ave & W Louisville St,S Aspen Ave&W Louisville,0,
36.039527,AspnORst,-95.815465,5695,,,S Aspen Ave/S 145th E Ave & W Oak Ridge St,S Aspen Ave&W Oak Rid,0,
36.035565,AspnToBA,-95.81521,5698,,,S Aspen Ave/S 145th E Ave & W Toledo St,S Aspen Ave&W Toledo,0,
36.03427,AspnToBA,-95.815466,5699,,,1760 S Aspen Ave/S 145th E Ave & W Toledo St,S Aspen Ave/S 145th E Ave&W Toledo,0,
36.118852,31st126a,-95.835458,5302,,,12730 E 31st St S & S 126th E Ave,E 31st St S&S 126th E Ave,0,
36.165596,CCIndp,-96.003235,6668,,,796 Country Club Dr & W Independence St,Country Club Dr & W Independence St,0,
36.165562,CCHask,-96.003125,6669,,,773 Country Club Dr & Haskell Pl,Country Club Dr & Haskell Pl,0,
36.024467,Aqua,-95.959133,6662,,,,Aquarium Dr & EB St,0,
36.046073,Lew81St,-95.957952,6663,,,8318 S Lewis Ave & E 81st St S,S Lewis Ave&E 81st St S,0,
36.022502,Ma43Pl,-95.965477,6661,,,400 E Main St\E 43rd Pl S & S 4th St,E Main St & E 43rd Pl S,0,
36.152314,49av3st,-96.047271,6666,,,316 S 49th W Ave & W 3rd St,S 49th W Ave & W 3rd St,0,
36.153291,49av3st,-96.047128,6667,,,259 S 49th W Ave & W 3rd St,S 49th W Ave & W 3rd St,0,
36.043556,Lew81St,-95.957881,6664,,,8226 S Lewis Ave & E 81st St S,S Lewis Ave & E 81st St S,0,
36.060985,71StLou,-95.935155,6665,,,3599 E 71st St S & S Louisville Ave/S Oswego Ave,E 71st St S & S Louisville Ave,0,
36.092112,HarvSkDr,-95.940065,5968,,,4961 S Harvard Ave & E Skelly Dr,S Harvard Ave&E Skelly Dr,0,
36.149946,Harv8st,-95.940304,5969,,,801 S Harvard Ave & E 8th St S,S Harvard Ave&E 8th St S,0,
36.106775,Harv39st,-95.94031,5960,,,3837 S Harvard Ave & E 38Th St S,S Harvard Ave&E 39Th St S,0,
36.103686,Harv41st,-95.94029,5961,,,4162 S Harvard Ave & E 41st St S,S Harvard Ave&E 41st St S,0,
36.101753,Harv44st,-95.940117,5962,,,4377 S Harvard Ave & E 44th St S,S Harvard Ave&E 44th St S,0,
36.101338,Harv44st,-95.940306,5963,,,4412 S Harvard Ave & E 44th St S,S Harvard Ave&E 44th St S,0,
36.100217,Harv45st,-95.94011,5964,,,4467 S Harvard Ave & E 45th St S,S Harvard Ave&E 45th St S,0,
36.099285,Harv45st,-95.940249,5965,,,4510 S Harvard Ave & E 45th St S,S Harvard Ave&E 45th St S,0,
36.094924,Harv49st,-95.940085,5966,,,4715 S Harvard Ave & E 49Th St S,S Harvard Ave&E 49Th St S,0,
36.095034,Harv47st,-95.940243,5967,,,4708 S Harvard Ave & E 47th St S,S Harvard Ave&E 47th St S,0,
36.151202,Bos6N,-95.988344,2280,,,,Boston/6th N-NE,0,
36.057539,Wh73N,-95.963587,3590,,,S WHEELING AVE & E 73RD ST S,73rd St S & Wheeling Ave,0,
36.147953,11st119a,-95.844157,5038,,,11906 E 11th St S & S 119th E Ave,E 11th St S&S 119th E Ave,0,
36.148121,11st120a,-95.843572,5039,,,11918 E 11th St S & S 120th E Ave,E 11th St S&S 120th E Ave,0,
36.148149,11stGntt,-95.853167,5036,,,11032 E 11th St S & S Garnett Rd,E 11th St S&S Garnett Rd,0,
36.147873,11st111a,-95.8527,5037,,,11100 E 11th St S & S 111th E Ave,E 11th St S&S 111th E Ave,0,
36.14785,11st101a,-95.862029,5034,,,10354 E 11th St S & S 101st E Ave,E 11th St S&S 101st E Ave,0,
36.147862,11st107a,-95.857477,5035,,,10722 E 11th St S & S 107th E Ave,E 11th St S&S 107th E Ave,0,
36.147984,11stPeo,-95.975924,5032,,,,E 11th St S&S Peoria Ave,0,
36.148148,11st98AN,-95.864916,5033,,,9975 E 11th St S & S 101st E Ave,E 11th St S&S 101st E Ave,0,
36.147884,11stSkDr,-95.846026,5030,,,11734 E 11th St S & E Skelly Dr,E 11th St S&E Skelly Dr,0,
36.148121,11st119a,-95.845456,5031,,,11762 E 11th St S & S 119Th E Ave,E 11th St S&S 119Th E Ave,0,
36.167189,MaJasp,-95.99679,6288,,,905 N Main St & E Jasper St,N Main St&E Jasper St,0,
36.176814,LewPine,-95.958337,6289,,,1478 N Lewis Ave & E Pine St,N Lewis Ave&E Pine St,0,
36.191978,PeoApch,-95.975768,6284,,,2641 N Peoria Ave & E Apache St,N Peoria Ave&E Apache St,0,
36.175489,MaOkSt,-95.996776,6285,,,1411 N Main St & E Oklahoma St,N Main St&E Oklahoma St,0,
36.173536,MaNwtS,-95.996771,6286,,,1309 N Main St & E Newton St,N Main St&E Newton St,0,
36.171739,MaMrsh,-95.99676,6287,,,1211 N Main St & E Marshall St,N Main St&E Marshall St,0,
36.208524,Peo36st,-95.975488,6280,,,3691 N Peoria Ave & E 36Th St N,N Peoria Ave&E 36Th St N,0,
36.207371,Peo36st,-95.975479,6281,,,3647 N Peoria Ave & E 36Th St N,N Peoria Ave&E 36Th St N,0,
36.202755,Peo33st,-95.975472,6282,,,3511 N Peoria Ave & E 33Rd St N,N Peoria Ave&E 33Rd St N,0,
36.163169,PeoEaSt,-95.975535,6283,,,501 N Peoria Ave & E Easton St,N Peoria Ave&E Easton St,0,
36.065779,Peo67st,-95.975862,6042,,,6720 S Peoria Ave & E 67Th St S,S Peoria Ave&E 67Th St S,0,
36.075884,Peo61st,-95.975672,6043,,,6061 S Peoria Ave & E 61St St S,S Peoria Ave&E 61St St S,0,
36.063944,Peo68st,-95.975904,6040,,,6862 S Peoria Ave & E 68Th St S,S Peoria Ave&E 68Th St S,0,
36.066446,Peo67st,-95.97571,6041,,,6679 S Peoria Ave & E 67Th St S,S Peoria Ave&E 67Th St S,0,
36.07868,Peo60st,-95.975719,6046,,,5827 S Peoria Ave & E 60Th St S,S Peoria Ave&E 60Th St S,0,
36.078521,Peo58st,-95.975864,6047,,,5836 S Peoria Ave & E 58Th St S,S Peoria Ave&E 58Th St S,0,
36.077287,Peo60st,-95.975729,6044,,,5977 S Peoria Ave & E 60Th St S,S Peoria Ave&E 60Th St S,0,
36.076779,Peo60st,-95.975863,6045,,,6012 S Peoria Ave & E 60Th St S,S Peoria Ave&E 60Th St S,0,
36.079915,Peo57Pl,-95.975733,6048,,,5691 S Peoria Ave & E 57Th Pl S,S Peoria Ave&E 57Th Pl S,0,
36.080004,Peo56st,-95.975851,6049,,,5686 S Peoria Ave & E 56Th St S,S Peoria Ave&E 56Th St S,0,
36.13357,21st85av,-95.882492,5248,,,8475 E 21st St S & S 85th E Ave,E 21st St S&S 85th E Ave,0,
36.147866,11stNwdA,-95.906432,5108,,,6332 E 11th St S & S Norwood Ave,E 11th St S&S Norwood Ave,0,
36.147825,11stPeo,-95.975297,5109,,,1308 E 11th St S & S Peoria Ave,11th & Peoria,0,
36.147833,11stMem,-95.886339,5102,,,E 11th St S & S Memorial Dr,11th & Memorial,0,
36.14815,11st101a,-95.867425,5103,,,9799 E 11th St S & S 101St E Ave,E 11th St S&S 101St E Ave,0,
36.147867,11stMpwd,-95.907506,5100,,,6236 E 11th St S & S Maplewood Ave,E 11th St S&S Maplewood Ave,0,
36.148125,11stMem,-95.887187,5101,,,1085 E 11th St S & S Memorial Dr,11th St S & Memorial,0,
36.147987,11stNorf,-95.979412,5106,,,,E 11th St S&S Norfolk Ave,0,
36.132972,21BoWB,-95.988598,3282,,,S BOULDER AVE & W 21ST ST S,W 21st St S&S Boulder,0,
36.147856,11stMngo,-95.868365,5104,,,9724 E 11th St S & S Mingo Rd,E 11th St S&S Mingo Rd,0,
36.14789,11stNHvn,-95.933985,5105,,,3781 E 11th St S & S New Haven Ave,E 11th St S&S New Haven Ave,0,
36.070258,InhofePl,-95.977916,2757,,,S NEWPORT AVE & E 64TH ST S,Inhofe Plaza,0,
36.13345,21stHud,-95.913246,5216,,,5657 E 21st St S & S Hudson Ave,E 21st St S&S Hudson Ave,0,
36.133342,21stIndy,-95.939581,5217,,,,E 21st St S&S Indianapolis Ave,0,
36.133344,21stGary,-95.942831,5214,,,3183 E 21st St S & S Gary Ave,E 21st St S&S Gary Ave,0,
36.133369,21stHarv,-95.940908,5215,,,3257 E 21st St S & S Harvard Ave,E 21st St S&S Harvard Ave,0,
36.133448,21stFul,-95.914517,5212,,,,E 21st St S&S Fulton Ave,0,
36.133584,21stGntt,-95.851552,5213,,,11175 E 21st St S & S Garnett Rd,E 21st St S&S Garnett Rd,0,
36.133411,21stCin,-95.983718,5210,,,189 E 21st St S & S Cincinnati Ave,E 21st St S&S Cincinnati Ave,0,
36.133324,21stEvan,-95.947277,5211,,,,E 21st St S&S Evanston Ave,0,
36.133362,21stKnox,-95.93725,5218,,,3575 E 21st St S & S Knoxville Ave,E 21st St S&S Knoxville Ave,0,
36.133464,21stLake,-95.909346,5219,,,,E 21st St S&S Lakewood Ave,0,
36.104361,41st100a,-95.865512,5362,,,10116 E 41st St S & S 100th E Ave,E 41st St S&S 100th E Ave,0,
36.104626,41st102a,-95.86423,5363,,,10181 E 41st St S & S 102nd E Ave,E 41st St S&S 102nd E Ave,0,
36.104579,41st118a,-95.849309,5360,,,11390 E 41st St S & S 118Th E Ave,E 41st St S&S 118Th E Ave,0,
36.104536,41st100a,-95.866663,5361,,,9875 E 41st St S & S 100th E Ave,E 41st St S&S 100th E Ave,0,
36.104376,41st109a,-95.855369,5366,,,10920 E 41st St S & S 109th E Ave,E 41st St S&S 109th E Ave,0,
36.104535,41st118a,-95.845638,5367,,,,E 41st St S&S 118th E Ave,0,
36.104318,41st102a,-95.863435,5364,,,10274 E 41st St S & S 102nd E Ave,E 41st St S&S 102nd E Ave,0,
36.104582,41st109a,-95.856027,5365,,,10879 E 41st St S & S 109th E Ave,E 41st St S&S 109th E Ave,0,
36.104533,41st122a,-95.841935,5368,,,12171 E 41st St S & S 122nd E Ave,E 41st St S&S 122nd E Ave,0,
36.104584,41st129a,-95.834182,5369,,,12825 E 41st St S & S 129th E Ave,E 41st St S&S 129th E Ave,0,
36.147808,11stNorf,-95.978851,5107,,,1110 E 11th St S & S Norfolk Ave,E 11th St S&S Norfolk Ave,0,
36.177268,PiLeWB,-95.958376,1469,,,N LEWIS AVE & E PINE ST,E Pine St&N Lewis Ave,0,
36.143918,GnttSkDr,-95.85126,5753,,,1284 S Garnett Rd & E Skelly Dr,S Garnett Rd&E Skelly Dr,0,
36.16775,GnttIndp,-95.851268,5752,,,1020 S Garnett Rd & E Independance St,S Garnett Rd&E Independance St,0,
36.165494,GnttIndp,-95.851269,5751,,,S Garnett Rd & E Independence St/E Cameron St,S Garnett Rd&E Independence St,0,
36.161128,GnttAdm,-95.851135,5750,,,39 S Garnett Rd & E Admiral Pl,S Garnett Rd&E Admiral Pl,0,
36.153256,GiRdAbvd,-96.020452,5757,,,280 S Gilcrease Museum Rd/S 25Th W Ave & W Admiral Blvd,Charles Page Blvd &S 25Th W Ave,0,
36.133842,Gntt21st,-95.850988,5756,,,2021 S Garnett Rd & E 21st St S,E 21st St S& Garnett,0,
36.167562,GnttCamr,-95.851066,5755,,,1011 S Garnett Rd & E Cameron St,S Garnett Rd&E Cameron St,0,
35.991728,121/Elm,-95.800436,4238,,,,121st St S& Elm,0,
36.117625,Harv32st,-95.940184,5759,,,3165 S Harvard Ave & E 32nd St S,S Harvard Ave&E 32nd St S,0,
36.204276,Hart35st,-95.984877,6448,,,3478 N Hartford Ave & E 35Th St N,N Hartford Ave&E 35Th St N,0,
36.202417,Hart33st,-95.985154,6449,,,3280 N Hartford Ave & E 33Th St N,N Hartford Ave&E 33Th St N,0,
36.105785,Hud41st,-95.913223,5591,,,3971 S Hudson Ave & E 41st St S,S Hudson Ave&E 41st St S,0,
36.153386,GiRdCPB,-96.020256,5590,,,265 S Gilcrease Museum Rd/S 25Th W Ave & Charles Page Blvd,S 25Th W Ave & Charles Page Blvd,0,
36.061071,KeBAAsh,-95.792022,5593,,,185 W Kenosha St/E 71st St S & N Ash Ave,W Kenosha St&N Ash Ave,0,
36.061048,KeBAHick,-95.806,5592,,,1067 W Kenosha St/E 71st St S & N Hickory Ave,W Kenosha St&N Hickory,0,
36.060904,KeBABrch,-95.792954,5595,,,270 W Kenosha St/E 71st St S & N Birch Ave,W Kenosha St&N Birch Av,0,
36.060783,KeBAAspn,-95.814797,5594,,,2156 W Kenosha St/E 71st St S & N Aspen Ave/S 145th E Ave,W Kenosha St&N Aspen Av,0,
36.162577,123aArch,-95.840196,5597,,,141 N 123rd E Ave & E Archer St,N 123rd E Ave&E Archer St,0,
36.060847,KeBAPcnP,-95.804385,5596,,,1020 W Kenosha St/E 71st St S & N Pecan Pl,W Kenosha St&N Pecan Pl,0,
36.16134,124aAdmC,-95.838886,5599,,,56 N 124th E Ave & E Admiral Ct,N 124th E Ave&E Admiral Ct,0,
36.161491,123aAdmC,-95.840633,5598,,,54 N 123rd E Ave & E Admiral Ct,N 123rd E Ave&E Admiral Ct,0,
36.140792,15stSher,-95.905256,6709,,,6247 E 15th St S & S Sheridan Rd,S Sheridan Rd&E 15th St S,0,
36.132955,Sher21st,-95.904698,6708,,,2104 S Sheridan rd & E 21st St S,S Sheridan rd & E 21st St S,0,
36.119146,137a31st,-95.823704,6701,,,3065 S 137th E Ave & E 31st St S,S 137th E Ave & E 31st St S,0,
36.148152,11st107a,-95.858169,6700,,,10543 E 11th St S & S 107th E Ave,E 11th St S & S 107th E Ave,0,
36.119094,31st124a,-95.839181,6703,,,12224 E 31st St S & S 124th E Ave,E 31st st S & S 124th E Ave,0,
36.118356,31st129a,-95.831793,6702,,,12920 E 31st St S & S 129th E Ave,E 31st St S & S 129th E Ave,0,
36.157794,Mem2st,-95.886839,6705,,,218 S Memorial Dr & East 2nd St,S Memorial Dr & East 2nd St,0,
36.159959,MemAdm,-95.886845,6704,,,2 S Memorial Dr & E Admiral Pl,Memorial & Admiral,0,
36.14037,Mem15st,-95.886772,6707,,,1510 S Memorial Dr & E 15th St S,S Memorial Dr&E 15th St S,0,
36.151276,Mem7st,-95.886791,6706,,,700 S Memorial Dr & East 7th St,S Memorial Dr & East 7th St,0,
36.094637,46th Min,-95.868984,4129,,,,S Mingo Rd&E 46th St S,0,
36.058797,73rd 112,-95.853164,4123,,,E 73RD ST & S 109 EAST AVE,73rd St S & 112th E Ave,0,
36.053196,Union,-95.851137,4120,,,S GARNETT RD & E 75TH PL S,73rd St s & 112th E AVE,0,
36.02396,AspnDlmr,-95.815196,5689,,,S Aspen Ave/S 145th E Ave & W Delmar St,S Aspen Ave&W Delmar,0,
36.024763,AspnCanP,-95.815443,5688,,,S Aspen Ave/S 145th E Ave & W Canton Pl,S Aspen Ave&W Canton,0,
36.030448,AspnWash,-95.815496,5685,,,2310 S Aspen Ave/S 145th E Ave & E 91St St S/W Washington St,S Aspen Ave&E 91St St,0,
36.147026,65av8st,-96.06529,5684,,,806 S 65th W Ave & W 8Th St S,Charles Page Blvd & 65th W Ave,0,
36.052575,AspnBdWy,-95.815201,5687,,,S Aspen Ave/S 145th E Ave & W Broadway Ave,S Aspen Ave&W Broadway,0,
36.007619,AspnAust,-95.815347,5686,,,4358 S Aspen Ave/S 145th E Ave & W Austin St,S Aspen Ave&W Austin,0,
36.119134,137a30Pl,-95.823853,5681,,,3130 S 137th E Ave & E 30Th Pl S (was E 31st St),S 137th E Ave&E 30Th Pl S,0,
36.129153,137aRing,-95.82367,5680,,,2382 S 137th E Ave & Ring Rd,S 137th E Ave&E 24th St S,0,
36.092291,49stOlym,-96.004598,6675,,,1000 W 49th St & S Olympia Ave,W 49th St & S Olympia Ave,0,
36.090627,Taco51st,-96.010103,6674,,,4927 S Tacoma Ave & W 51st St,S Tacoma Ave & W 51st St,0,
36.084551,Peo55st,-95.975679,6677,,,5327 S Peoria Ave & E 55th St S,S Peoria Ave & E 55th St S,0,
36.09228,49stmayb,-96.001773,6676,,,800 W 49th St & S Maybelle Ave,W 49th St & S Maybelle Ave,0,
36.082982,41av55pl,-96.038612,6671,,,5556 S 41st W Ave & W 55th Pl,S 41st W Ave & W 55th Pl,0,
36.080878,57st33av,-96.030094,6670,,,3333 W 57th St & S 33rd W Ave,W 57th St & S 33rd W Ave,0,
36.090208,Taco51st,-96.010228,6673,,,4900 S Tacoma Ave & W 51st St,S Tacoma Ave & W 51st St,0,
36.075206,61stYa,-95.921665,6679,,,4900 E 61st St S & S Yale Ave,E 61st St S & S Yale Ave,0,
36.089425,Ya51st,-95.922446,6678,,,5102 S Yale Ave & E 51st St S,S Yale Ave & E 51st St S,0,
36.09029,Mem51st,-95.886401,5979,,,5059 S Memorial Dr & E 51st St S,S Memorial Dr&E 51st St S,0,
36.110114,Mem37st,-95.886723,5978,,,3714 S Memorial Dr & E 37th St S,S Memorial Dr&E 37th St S,0,
36.140345,Harv15st,-95.940471,5973,,,1512 S Harvard Ave & E 15th St S,S Harvard Ave&E 15th St S,0,
36.140805,Harv15st,-95.940272,5972,,,1485 S Harvard Ave & E 15th St S,S Harvard Ave&E 15th St S,0,
36.148107,Harv11st,-95.940259,5971,,,885 S Harvard Ave & E 11th St S,S Harvard Ave&E 11th St S,0,
36.153581,Harv5st,-95.940439,5970,,,,S Harvard Ave&E 5Th St S,0,
36.152893,Harv5Pl,-95.940285,5976,,,525 S Harvard Ave & E 5th Pl S,S Harvard Ave&E 5th Pl S,0,
36.15563,Harv4st,-95.940441,5975,,,410 S Harvard Ave & E 4th St S,S Harvard Ave&E 4th St S,0,
36.137051,Harv17st,-95.940256,5974,,,1687 S Harvard Ave & E 17th St S,S Harvard Ave&E 17th St S,0,
36.128894,137/24S,-95.823059,3612,,,S 137TH E AVE & E 24TH ST S,137th EA/24th S-SW,0,
36.147806,11st11st,-95.981998,5029,,,450 E 11th St S & E 11Th St,E 11th St S&E 11Th St,0,
36.147849,11st93av,-95.872991,5028,,,,E 11th St S&S 93rd E Ave,0,
36.148098,CPB59av,-96.058389,5021,,,5880 Charles Page Blvd & S 59th W Ave,Charles Page Blvd&S 59th W Ave,0,
36.148139,CPB54av,-96.053603,5020,,,5408 Charles Page Blvd & S 54th W Ave,Charles Page Blvd&S 54th W Ave,0,
36.140177,CPBAdam,-96.089447,5023,,,8422 Charles Page Blvd & S Adams Rd,Charles Page Blvd&S Adams Rd,0,
36.14823,CPB59av,-96.058744,5022,,,5904 Charles Page Blvd & S 59th W Ave,Charles Page Blvd&S 59th W Ave,0,
36.147758,11stDel,-95.949038,5025,,,2806 E 11th St S & S Delaware Ave,E 11th St S&S Delaware Ave,0,
36.148129,11st87av,-95.880419,5027,,,8579 E 11th St S & S 87th E Ave,E 11th St S&S 87th E Ave,0,
36.140633,15stDel,-95.949519,5026,,,2784 E 15th St S & S Delaware Ave,E 15th St S&S Delaware Ave,0,
36.206515,Hart36st,-95.984529,6299,,,3713 N Hartford Ave & E 36Th St N,N Hartford Ave&E 36Th St N,0,
36.204622,Hart35st,-95.984564,6298,,,3511 N Hartford Ave & E 35Th St N,N Hartford Ave&E 35Th St N,0,
36.210425,Hart39st,-95.984038,6297,,,,N Hartford Ave&E 39Th St N,0,
36.189144,LewApch,-95.958269,6296,,,2410 N Lewis Ave & E Apache St,N Lewis Ave&E Apache St,0,
36.16986,LewMrsh,-95.958272,6295,,,1108 N Lewis Ave & E Marshall St,N Lewis Ave&E Marshall St,0,
36.171977,LewMrsh,-95.958304,6294,,,1182 N Lewis Ave & E Marshall St,N Lewis Ave&E Marshall St,0,
36.179422,LewRead,-95.958287,6293,,,1682 N Lewis Ave & E Reading St,N Lewis Ave&E Reading St,0,
36.182244,LewUte,-95.958296,6292,,,1922 N Lewis Ave & E Ute St,N Lewis Ave&E Ute St,0,
36.16582,LewIndp,-95.958268,6291,,,772 N Lewis Ave & E Indepedance St,N Lewis Ave&E Indepedance St,0,
36.162436,LewArch,-95.958244,6290,,,94 N Lewis Ave & E Archer St,N Lewis Ave&E Archer St,0,
36.095633,Peo48st,-95.975632,6059,,,4763 S Peoria Ave & E 48Th St S,S Peoria Ave&E 48Th St S,0,
36.094592,Peo48st,-95.975855,6058,,,4820 S Peoria Ave & E 48Th St S,S Peoria Ave&E 48Th St S,0,
36.09193,Peo49Pl,-95.975849,6055,,,4930 S Peoria Ave & E 49Th Pl S,S Peoria Ave&E 49Th Pl S,0,
36.086421,Peo53Pl,-95.975677,6054,,,5275 S Peoria Ave & E 53Rd Pl S,S Peoria Ave&E 53Rd Pl S,0,
36.09116,Peo51ST,-95.975646,6057,,,4961 S Peoria Ave & E Skelly Dr,S Peoria Ave&E Skelly Dr,0,
36.092543,Peo49Pl,-95.975642,6056,,,4913 S Peoria Ave & E 49Th Pl S,S Peoria Ave&E 49Th Pl S,0,
36.082201,Peo56st,-95.975882,6050,,,5610 S Peoria Ave & E 56Th St S,S Peoria Ave&E 56Th St S,0,
36.086654,Peo53st,-95.97585,6053,,,5258 S Peoria Ave & E 53Rd St S,S Peoria Ave&E 53Rd St S,0,
36.083992,Peo55st,-95.975855,6052,,,5510 S Peoria Ave & E 55Th St S,S Peoria Ave&E 55Th St S,0,
36.147962,11stRock,-95.972499,5115,,,1469 E 11th St S & S Rockford Ave,E 11th St S&S Rockford Ave,0,
36.147877,11stSand,-95.928936,5114,,,4317 E 11th St S & S Sandusky Ave,E 11th St S&S Sandusky Ave,0,
36.147852,11stSher,-95.903956,5117,,,6524 E 11th St S & S Sheridan Rd,E 11th St S&S Sheridan Rd,0,
36.148039,11stSher,-95.9051,5116,,,6449 E 11th St S & S Sheridan Rd,E 11th St S&S Sheridan Rd,0,
36.147962,11stQuak,-95.97481,5111,,,1317 E 11th St S & S Quaker Ave,E 11th St S&S Quaker Ave,0,
36.147755,11stPit,-95.9312,5110,,,4118 E 11th St S & S Pittsburg Ave,E 11th St S&S Pittsburg Ave,0,
36.147748,11stRich,-95.928778,5113,,,4338 E 11th St S & S Richmond Ave,E 11th St S&S Richmond Ave,0,
36.147822,11stQuak,-95.97415,5112,,,1348 E 11th St S & S Quaker Ave,E 11th St S&S Quaker Ave,0,
36.147803,11stStLu,-95.970752,5119,,,1540 E 11th St S & S St Louis Ave,E 11th St S&S St Louis Ave,0,
36.147948,11stTren,-95.970908,5118,,,1531 E 11th St S & S Trenton Ave,E 11th St S&S Trenton Ave,0,
36.150361,Chy5SB,-95.992111,2740,,,S CHEYENNE AVE & W 5TH ST S,5th & Cheyenne,0,
36.146416,Ma10EB,-95.987252,2745,,,S MAIN ST & E 10TH ST S,Main & 10th St S,0,
36.133561,21st129a,-95.8337,5201,,,12591 E 21st St S & S 129th E Ave,E 21st St S&S 129th E Ave,0,
36.133566,21st125a,-95.837546,5200,,,12379 E 21st St S & S 125th E Ave,E 21st St S&S 125th E Ave,0,
36.133525,21st73av,-95.895746,5203,,,7278 E 21st St S & S 73Rd E Ave,E 21st St S&S 73Rd E Ave,0,
36.133515,21st71av,-95.897552,5202,,,6990 E 21st St S & S 71st E Ave,E 21st St S&S 71st E Ave,0,
36.133562,21st79av,-95.889174,5205,,,7795 E 21st St S & S 79th E Ave,E 21st St S&S 79th E Ave,0,
36.133498,21st77av,-95.892518,5204,,,,E 21st St S&S 77Th E Ave,0,
36.13358,21st93av,-95.874673,5207,,,8993 E 21st St S & S 93rd E Ave,E 21st St S&S 93rd E Ave,0,
36.133574,21st89av,-95.878156,5206,,,8867 E 21st St S & S 89th E Ave,E 21st St S&S 89th E Ave,0,
36.133341,21stAtl,-95.95623,5209,,,2489 E 21st St S & S Atlanta Ave,E 21st St S&S Atlanta Ave,0,
36.133573,21st123a,-95.839632,5199,,,12185 E 21st St S & S 123rd E Ave,E 21st St S&S 123rd E Ave,0,
36.161224,EdGiWB,-96.019778,3237,,,N 125TH W AVE & W EDISON ST,Gilcrease Dr & Edison,0,
36.133589,21st116a,-95.847725,5197,,,11577 E 21st St S & S 116th E Ave,E 21st St S&S 116th E Ave,0,
36.133584,21st109a,-95.855695,5196,,,10739 E 21st St S & S 109Th E Ave,E 21st St S&S 109Th E Ave,0,
36.132827,Le21NB,-95.957809,764,,,S LEWIS AVE & E 21ST ST S,Lewis & 21st St S,0,
36.104049,41stBmPl,-95.952402,5379,,,2621 E 41st St S & S Birmingham Pl,E 41st St S&S Birmingham Pl,0,
36.104295,41stAtlP,-95.954928,5378,,,2531 E 41st St S & S Atlanta Pl,E 41st St S&S Atlanta Pl,0,
36.104339,41st74av,-95.894247,5375,,,7336 E 41st St S & S 74th E Ave,E 41st St S&S 74th E Ave,0,
36.104489,41st74av,-95.895079,5374,,,7279 E 41st St S & S 74th E Ave,E 41st St S&S 74th E Ave,0,
36.104209,41stAtl,-95.955441,5377,,,2512 E 41st St S & S Atlanta Ave,E 41st St S&S Atlanta Ave,0,
36.10435,41st40Pl,-95.871738,5376,,,,E 41st St S&E 40Th Pl S,0,
36.104332,41st68av,-95.900373,5371,,,6828 E 41st St S & S 68th E Ave,E 41st St S&S 68th E Ave,0,
36.104503,41st68av,-95.901933,5370,,,6661 E 41st St S & S 68th E Ave,E 41st St S&S 68th E Ave,0,
36.104484,41st72av,-95.897521,5373,,,7077 E 41st St S & S 72nd E Ave,E 41st St S&S 72nd E Ave,0,
36.104336,41st70av,-95.898631,5372,,,7024 E 41st St S & S 70th E Ave,E 41st St S&S 70th E Ave,0,
36.191645,ApYaEB,-95.922641,3130,,,N YALE AVE & E APACHE ST,Yale & Apache,0,
36.133227,21UtEB,-95.96679,1322,,,S UTICA AVE & E 21ST ST S,21st St S & Utica,0,
36.196648,Garr30st,-95.986864,6451,,,2884 N Garrison Ave & E 30Th St N,N Garrison Ave&E 30Th St N,0,
36.20018,Garr32st,-95.986369,6450,,,3180 N Garrison Ave & E 32Nd St N,N Garrison Ave&E 32Nd St N,0,
36.193285,Garr27Pl,-95.986833,6453,,,,N Garrison Ave&E 27Th Pl N,0,
36.194675,Garr27Ct,-95.986863,6452,,,N Garrison Ave & E 27Th Ct  N,Garrison & 27th St N,0,
36.191931,CinMHKB,-95.993601,6455,,,2612 N Cincinnati Ave & Mohawk Blvd,Martin Luther King Jr Blvd&Mohawk Blvd,0,
36.192606,MHKBGarr,-95.988906,6454,,,507 Mohawk Blvd & N Garrison Ave,Mohawk Blvd&N Garrison Ave,0,
36.1069,Harv39st,-95.940133,5768,,,3873 S Harvard Ave & E 39th St S,S Harvard Ave&E 39th St S,0,
36.104456,Harv41st,-95.940056,5769,,,4083 S Harvard Ave & E 41st St S,E 41st St S&S Harvard Ave,0,
36.108097,Harv38st,-95.940308,5766,,,3770 S Harvard Ave & E 38th St S,S Harvard Ave&E 38th St S,0,
36.183231,CinUteP,-95.993579,6458,,,1930 N Cincinnati Ave & E Ute Pl,Martin Luther King Jr Blvd&E Ute Pl,0,
36.111765,Harv36st,-95.94014,5764,,,3589 S Harvard Ave & E 36th St S,S Harvard Ave&E 36th St S,0,
36.110049,Harv37st,-95.940156,5765,,,3685 S Harvard Ave & E 37th St S,S Harvard Ave&E 37th St S,0,
36.113605,Harv35st,-95.940159,5762,,,3467 S Harvard Ave & E 35th St S,S Harvard Ave&E 35th St S,0,
36.111309,Harv36st,-95.940307,5763,,,3610 S Harvard Ave & E 36th St S,S Harvard Ave&E 36th St S,0,
36.115528,Harv33st,-95.940353,5760,,,3260 S Harvard Ave & E 33rd St S,S Harvard Ave&E 33rd St S,0,
36.115371,Harv33st,-95.940168,5761,,,3281 S Harvard Ave & E 33rd St S,S Harvard Ave&E 33rd St S,0,
36.177018,PineWh,-95.964257,5568,,,1966 E Pine St & N Wheeling Ave,E Pine St&N Wheeling Ave,0,
36.17712,PineWh,-95.965657,5569,,,1871 E Pine St & N Wheeling Ave,E Pine St&N Wheeling Ave,0,
36.177166,PineTol,-95.926932,5564,,,4607 E Pine St & N Toledo Ave/N Urbana Ave,E Pine St&N Toledo Ave,0,
36.176971,PineTroo,-95.96799,5565,,,1652 E Pine St & N Troost Ave,E Pine St&N Troost Ave,0,
36.177169,PineVanP,-95.924438,5567,,,4705 E Pine St & N Vandalia Pl,E Pine St&N Vandalia Pl,0,
36.177199,PineSher,-95.904911,5560,,,6469 E Pine St & N Sheridan Rd,E Pine St&N Sheridan Rd,0,
36.177058,PineTren,-95.9699,5561,,,1577 E Pine St & N Trenton Ave,E Pine St&N Trenton Ave,0,
36.176942,PinePeo,-95.97078,5562,,,1528 E Pine St & N Peoria Ave,E Pine St&N Peoria Ave,0,
36.177034,PineTol,-95.926733,5563,,,4618 E Pine St & N Toledo Ave,E Pine St&N Toledo Ave,0,
36.104536,Pe41NB,-95.97551,304,,,S PEORIA AVE & E 41ST ST S,S Peoria Ave&E 41St  St S,0,
36.167117,JaCC,-96.002999,4116,,,COUNTRY CLUB DR & W JASPER ST,Country Club Dr &W Jasper St,0,
36.022435,MainElJ,-95.975511,4114,,,S ELM ST & E MAIN ST,Main & Elm,0,
36.220558,46stFftP,-95.988859,6433,,,503 E 46th st N & N Frankfort Pl,E 46th st N&N Frankfort Pl,0,
36.176943,FLAG18,-95.975877,6604,,,E PINE ST & N OWASSO AVE,E PINE S&N PEORIA AVE,0,
36.231089,Cin54st,-95.993597,6439,,,5284 N Cincinnati Ave & E 54Th St N,Martin Luther King Jr Blvd &E 54Th St N,0,
36.184204,FLAG22,-95.993576,6608,,,N CINCINNATI AVE & E VIRGIN ST,Martin Luther King Jr Blvd&E VIRGIN ST,0,
36.08982,FLAG23,-96.01154,6609,,,W 51ST ST S & S TACOMA AVE W,W 51ST ST S&S UNION AVE,0,
36.224173,49stChey,-95.997759,6438,,,174 W 49Th St N & N Cheyenne Ave,Denver & 49th St N,0,
36.132086,Harv22st,-95.940244,5946,,,2129 S Harvard Ave & E 22nd St S,S Harvard Ave&E 22nd St S,0,
36.130291,Harv22st,-95.940453,5947,,,,S Harvard Ave&E 22Nd St S,0,
36.144383,Harv13st,-95.940258,5945,,,1289 S Harvard Ave & E 13th St S,S Harvard Ave&E 13th St S,0,
36.089763,51stOswe,-95.932717,5942,,,3924 E 51st St S & S Oswego Ave,E 51st St S&S Oswego Ave,0,
36.152642,Dnvr3st,-95.994767,5943,,,251 S Denver Ave & W 3rd St S,S Denver Ave&W 3rd St S,0,
36.089968,51stYa,-95.923023,5940,,,4773 E 51st St S & S Yale Ave,E 51st St S&S Yale Ave,0,
36.089922,51stRich,-95.928876,5941,,,4321 E 51st St S & S Richmond Ave/S Toledo Ave,E 51st St S&S Richmond Ave,0,
36.130323,Harv23st,-95.940225,5948,,,,S Harvard Ave&E 23rd St S,0,
36.128828,HarvFloP,-95.940407,5949,,,,S Harvard Ave&S Florence Pl,0,
36.141096,Mem15st,-95.886535,5784,,,1475 S Memorial Dr & E 15th St S,S Memorial Dr&E 15th St S,0,
36.139198,Mem16st,-95.886543,5786,,,1577 S Memorial Dr & E 16th St S,S Memorial Dr&E 16th St S,0,
36.138676,Mem16st,-95.886777,5787,,,1608 S Memorial Dr & E 16th St S,S Memorial Dr&E 16th St S,0,
36.148404,Mem11st,-95.886559,5780,,,1053 S Memorial Dr & E 11th St S,S Memorial Dr&E 11th St S,0,
36.146395,Mem12st,-95.886538,5781,,,1187 S Memorial Dr & E 12th St S,S Memorial Dr&E 12th St S,0,
36.142866,Mem14st,-95.886538,5782,,,1287 S Memorial Dr & E 14th St S,S Memorial Dr&E 14th St S,0,
36.142227,Mem14st,-95.886784,5783,,,1416 S Memorial Dr & E 14th St S,S Memorial Dr&E 14th St S,0,
36.137378,Mem17st,-95.886546,5788,,,1685 S Memorial Dr & E 17th St S,S Memorial Dr&E 17th St S,0,
36.13494,Mem21st,-95.886554,5789,,,1921 S Memorial Dr & E 21St St S,S Memorial Dr&E 21St St S,0,
36.077228,Mem60st,-95.886326,6118,,,5981 S Memorial Dr & E 60Th St S,S Memorial Dr&E 60Th St S,0,
36.076635,Mem60st,-95.886567,6119,,,6018 S Memorial Dr & E 60Th St S,S Memorial Dr&E 60Th St S,0,
36.069814,Mem65st,-95.886305,6114,,,6481 S Memorial Dr & E 65Th St S,S Memorial Dr&E 65Th St S,0,
36.073199,Mem63st,-95.886557,6115,,,6238 S Memorial Dr & E 63Rd St S,S Memorial Dr&E 63Rd St S,0,
36.071202,Mem63Pl,-95.886557,6116,,,6414 S Memorial Dr & E 63Rd Pl S,S Memorial Dr&E 63Rd Pl S,0,
36.075017,Mem61st,-95.886559,6117,,,6118 S Memorial Dr & E 61St St S,S Memorial Dr&E 61st St S,0,
36.058098,Mem73st,-95.886467,6110,,,7206 S Memorial Dr & E 73Rd St S,S Memorial Dr&E 73Rd St S,0,
36.059663,Mem73st,-95.886204,6111,,,7129 S Memorial Dr & E 73Rd St S,S Memorial Dr&E 73Rd St S,0,
36.065381,Mem68st,-95.886543,6112,,,6724 S Memorial Dr & E 68Th St S,S Memorial Dr&E 68Th St S,0,
36.068228,Mem66st,-95.886311,6113,,,6571 S Memorial Dr & E 66Th St S,S Memorial Dr&E 66Th St S,0,
36.133027,Ha21SB,-95.940493,1890,,,S HARVARD AVE & E 21ST ST S,S Harvard Ave&E 21st St S,0,
36.150491,Ch5SB,-95.992378,3732,,,S CHEYENNE AVE & W 5TH ST S,Cheyenne Ave & 5th St S,0,
36.062899,YaZur,-95.921995,6028,,,6933 S Yale Ave & S Zurich Ave/E 71St St S,S Yale Ave&S Zurich Ave,0,
36.049684,Wh81st,-95.964562,6029,,,7823 S Wheeling Ave & E 81St St S,S Wheeling Ave&E 81St St S,0,
36.126325,25stJack,-95.999798,6020,,,W 25Rd St S & S Jackson Ave,W 25th St S&S Jackson Ave,0,
36.129722,23stSW,-96.006499,6021,,,,W 23Rd St S&Southwest Blvd,0,
36.129736,23stNoga,-96.002896,6022,,,966 W 23Rd St S & S Nogales Ave,W 23Rd St S&S Nogales Ave,0,
36.125818,SW25st,-96.007267,6024,,,2714 Southwest Blvd & W 25Th St S/UNNAMED St,W 25th St S&S Jackson Ave,0,
36.135939,SW17st,-96.007053,6025,,,1860 Southwest Blvd & W 17Th St S,Southwest Blvd&W 17Th St S,0,
36.133203,SW21st,-96.007085,6026,,,2108 Southwest Blvd & W 21St St S,Southwest Blvd&W 21St St S,0,
36.137299,SW17st,-96.00704,6027,,,1728 Southwest Blvd & W 17Th St S,Southwest Blvd&W 17Th St S,0,
36.14061,15stLew,-95.958818,5160,,,2349 E 15th St S & S Lewis Ave,E 15th St S&S Lewis Ave,0,
36.206349,WeViEW,-95.995284,2649,,,N CINCINNATI AVE & E 36TH ST N,Westview Clinic,0,
36.140697,15stLou,-95.936191,5162,,,3669 E 15th St S & S Louisville Ave,E 15th St S&S Louisville Ave,0,
36.140472,15stLou,-95.935471,5163,,,3734 E 15th St S & S Louisville Ave,E 15th St S&S Louisville Ave,0,
36.140565,15stMad,-95.980032,5164,,,1024 E 15th St S & S Madison Ave,E 15th St S&S Madison Ave,0,
36.140695,15stNHvn,-95.934136,5165,,,3857 E 15th St S & S New Haven Ave,E 15th St S&S New Haven Ave,0,
36.140469,15stNHvn,-95.933336,5166,,,3922 E 15th St S & S New Haven Ave,E 15th St S&S New Haven Ave,0,
36.140578,15stNewP,-95.977741,5167,,,1142 E 15th St S & S Newport Ave,E 15th St S&S Newport Ave,0,
36.1407,15stNorf,-95.979336,5168,,,1079 E 15th St S & S Norfolk Ave,E 15th St S&S Norfolk Ave,0,
36.140575,15stNorf,-95.978893,5169,,,1104 E 15th St S & S Norfolk Ave,E 15th St S&S Norfolk Ave,0,
36.045621,TCC  SE,-95.863307,2645,,,,Tulsa Community College South Campus,0,
36.243087,Ci-61NB,-95.993096,2646,,,N CINCINNATI AVE & E 61ST ST N,Martin Luther King Jr Blvd & 61st St N,0,
36.034753,101a88st,-95.864719,6334,,,8856 S 101St E Ave & E 88Th St S,S 101St E Ave&E 88Th St S,0,
36.046494,81stLew,-95.958502,6337,,,2297 E 81St St S & S Lewis Ave,S Lewis Ave&E 81st St S,0,
36.176885,PineMa,-95.996509,6331,,,,E Pine St&N Main St,0,
36.036122,88stLew,-95.953947,6333,,,2441 E 88Th St S & S Lewis Ave,88th St S & Lewis,0,
36.046501,81stYork,-95.960773,6338,,,2019 E 81St St S & S Yorktown Ave,E 81St St S&S Yorktown Ave,0,
36.150605,7stDet,-95.98629,6339,,,237 E 7Th St S & S Detroit Ave,E 7Th St S&S Detroit Ave,0,
36.177018,PiCiWB,-95.994985,1857,,,N CINCINNATI AVE & E PINE ST,E Pine St & Martin Luther King Jr Blvd,0,
36.118851,31st73av,-95.896025,5308,,,7154 E 31st St S & S 73rd E Ave,E 31st St S&S 73rd E Ave,0,
36.118835,31st74Pl,-95.893962,5309,,,7420 E 31st St S & S 74th E Pl,E 31st St S&S 74th E Pl,0,
36.119061,31st111a,-95.853761,5300,,,10981 E 31st St S & S 111th E Ave,E 31st St S&S 111th E Ave,0,
36.118852,31st124a,-95.839198,5301,,,,E 31st St S&S 124th E Ave,0,
36.140194,15/ShE,-95.904389,1063,,,S SHERIDAN AVE & E 15TH ST S,S Sheridan Rd&E 15th St S,0,
36.119035,31st129a,-95.833805,5303,,,12855 E 31st St S & S 129th E Ave,31St St S & 129th E Ave,0,
36.11898,31st66Pl,-95.901514,5304,,,6741 E 31st St S & S 66th E Pl,E 31st St S&S 66th E Pl,0,
36.118843,31st67av,-95.901325,5305,,,6764 E 31st St S & S 67th E Ave,E 31st St S&S 67th E Ave,0,
36.118974,31st70av,-95.89859,5306,,,6893 E 31st St S & S 70th E Ave,E 31st St S&S 70th E Ave,0,
36.118834,31st70av,-95.89824,5307,,,6920 E 31st St S & S 70th E Ave,E 31st St S&S 70th E Ave,0,
36.177082,FLAG6,-95.868801,6592,,,,E PINE ST&N MINGO RD,0,
36.176984,FLAG7,-95.86861,6593,,,,E PINE ST&N MINGO RD,0,
36.036305,FLAG8,-95.86472,6594,,,,S 101ST E AVE&SOUTHCREST,0,
36.034753,FLAG9,-95.864719,6595,,,,S 101ST E AVE&E 88TH ST,0,
36.156087,FLAG10,-95.996752,6596,,,W ARCHER ST & N ELWOOD AVE,W ARCHER ST&N DENVER AVE,0,
36.156052,FLAG11,-95.996729,6597,,,W ARCHER ST & N ELWOOD AVE,W ARCHER ST&N DENVER AVE,0,
36.060809,FLAG13,-95.851029,6599,,,S 113TH EAST AVE & S GARNETT RD,S GARNETT RD&E 71ST ST S,0,
36.097778,46st86av,-95.876935,5414,,,8986 E 46th St S & S 86Th E Ave,E 46th St S&S 86Th E Ave,0,
36.096855,46stMngo,-95.872672,5415,,,9321 E 46th St S & S Mingo Rd,E 46th St S&S Mingo Rd,0,
36.09681,46st93av,-95.8728,5416,,,9312 E 46th St S & S 93Rd E Ave,E 46th St S&S 93Rd E Ave,0,
36.097763,46stMem,-95.886125,5417,,,8108 E 46th St S & S Memorial Dr,E 46th St S&S Memorial Dr,0,
36.097866,46st83av,-95.884267,5410,,,8151 E 46th St S & S 83rd E Ave,E 46th St S&S 83rd E Ave,0,
36.097763,46st83av,-95.883568,5411,,,8192 E 46th St S & S 83rd E Ave,E 46th St S&S 83rd E Ave,0,
36.09787,46st86av,-95.881106,5412,,,8551 E 46th St S & S 86th E Ave,E 46th St S&S 86th E Ave,0,
36.097875,46st91av,-95.876156,5413,,,9059 E 46th St S & S 91st E Ave,E 46th St S&S 91st E Ave,0,
36.094827,47PlMngo,-95.86952,5418,,,9546 E 47th Pl S & S Mingo Rd,E 47th Pl S&S Mingo Rd,0,
36.136649,Mem17st,-95.886782,5779,,,1750 S Memorial Dr & E 17th St S,S Memorial Dr&E 17th St S,0,
36.110542,Mem37st,-95.886446,5778,,,3685 S Memorial Dr & E 37th St S,S Memorial Dr&E 37th St S,0,
36.107611,HudGran,-95.91321,5771,,,3857 S Hudson Ave & S Granite Ave,S Hudson Ave&S Granite Ave,0,
36.105173,Harv41st,-95.940081,5770,,,4023 S Harvard Ave & E 41st St S,S Harvard Ave&E 41st St S,0,
36.038465,MaBARich,-95.790719,5773,,,1619 S Main St & E Richmond St,S Main St&E Richmond St,0,
36.041313,MaBAMas,-95.790688,5772,,,1163 S Main St & E Mason Dr,S Main St&E Mason Dr,0,
36.04211,MaBAMphs,-95.790922,5775,,,1102 S Main St & W Memphis St,S Main St&W Memphis St,0,
36.04731,MaBAHous,-95.790685,5774,,,607 S Main St & W Houston St/E 81St St S,S Main St&W Houston St,0,
36.12734,Mem25Pl,-95.886534,5777,,,2477 S Memorial Dr & E 25th Pl S,S Memorial Dr&E 25th Pl S,0,
36.03282,MaBAWash,-95.790708,5776,,,1861 S Main St & W Washington St/E 91st St S,S Main St&W Washington St,0,
36.184191,VirgQuak,-95.974582,5579,,,1324 E Virgin St & N Quaker Ave,E Virgin St&N Quaker Ave,0,
36.184306,VirgPeo,-95.976376,5578,,,,E Virgin St&N Peoria Ave,0,
36.184237,VirgMad,-95.979824,5577,,,E Virgin St & N Madison Ave,Virgin & Madison,0,
36.18436,VirgMad,-95.98019,5576,,,,E Virgin St&N Madison Ave,0,
36.184249,Virg73av,-95.895426,5575,,,,E Virgin St&N 73Rd E Ave,0,
36.184417,Virg73av,-95.895881,5574,,,7275 E Virgin St & N 73Rd E Ave,E Virgin St&N 73Rd E Ave,0,
36.177021,PineZuni,-95.959187,5573,,,2232 E Pine St & N Zunis Ave,E Pine St&N Zunis Ave,0,
36.177147,PineYork,-95.962656,5572,,,2085 E Pine St & N Yorktown Ave,E Pine St&N Yorktown Ave,0,
36.177169,PineYa,-95.922997,5571,,,4857 E Pine St & N Yale Ave,E Pine St&N Yale Ave,0,
36.17702,PineWins,-95.92262,5570,,,4890 E Pine St & N Winston Ave,E Pine St&N Winston Ave,0,
36.092065,49/Jack,-95.999786,1244,,,,49th/Jackson EB,0,
36.019758,AquJ,-95.959349,4109,,,AQUARIUM DR & E 101ST ST S,Jenks Aquarium,0,
36.177002,FLAG27,-95.868621,6613,,,,E PINE ST&N MINGO RD,0,
36.184242,FLAG26,-95.988975,6612,,,E VIRGIN ST & N FRANKFORT AVE,E VIRGIN ST&&NFRANKFORT AVE,0,
36.184171,FLAG25,-95.988975,6611,,,,E VIRGIN ST&N FRANKFORT AVE,0,
36.089784,FLAG24,-96.01154,6610,,,W 51ST ST S & S TACOMA AVE W,W 51ST ST S& S UNION AVE,0,
36.060884,FLAG31,-95.868437,6617,,,E 71ST ST S & S 97TH EAST AVE,E 71ST ST S&S MINGO RD,0,
36.089781,FLAG30,-95.922012,6616,,,,E 51ST ST S&S YALE AVE,0,
36.129845,FLAG29,-96.007019,6615,,,SOUTHWEST BLVD & W 22ND PL S,SOUTHWEST BLVD&W 23RD ST S,0,
36.138483,FLAG33,-96.101372,6619,,,E 2ND ST & N ADAMS RD,2nd & Adams Rd,0,
36.13842,FLAG32,-96.101383,6618,,,E 2ND ST & N ADAMS RD,2nd & Adams Rd,0,
36.12459,Harv27st,-95.940195,5951,,,2679 S Harvard Ave & E 27Th St S,S Harvard Ave&E 27Th St S,0,
36.128073,Harv25st,-95.940241,5950,,,,S Harvard Ave&E 25th St S,0,
36.123763,Harv27st,-95.940413,5953,,,2712 S Harvard Ave & E 27Th St S,S Harvard Ave&E 27Th St S,0,
36.122679,Harv28st,-95.940188,5952,,,2775 S Harvard Ave & E 28Th St S,S Harvard Ave&E 28Th St S,0,
36.122072,Harv28st,-95.940388,5955,,,2836 S Harvard Ave & E 28Th St S,S Harvard Ave&E 28Th St S,0,
36.12379,Harv27Pl,-95.940183,5954,,,2713 S Harvard Ave & E 27th Pl S,S Harvard Ave&E 27th Pl S,0,
36.11998,Harv30Pl,-95.940188,5957,,,3015 S Harvard Ave & E 30th Pl S,S Harvard Ave&E 30th Pl S,0,
36.121468,Harv30st,-95.94019,5956,,,2911 S Harvard Ave & E 30Th St S,S Harvard Ave&E 30Th St S,0,
36.119153,Harv31st,-95.940189,5959,,,3067 S Harvard Ave & E 31st St S,S Harvard Ave&E 31st St S,0,
36.124376,Mem27st,-95.886748,5797,,,2708 S Memorial Dr & E 27th St S,S Memorial Dr&E 27th St S,0,
36.125027,Mem27st,-95.886512,5796,,,2671 S Memorial Dr & E 27th St S,S Memorial Dr&E 27th St S,0,
36.126747,Mem25Pl,-95.886764,5795,,,2524 S Memorial Dr & E 25th Pl S,S Memorial Dr&E 25th Pl S,0,
36.128622,Mem24st,-95.886775,5794,,,2402 S Memorial Dr & E 24th St S,S Memorial Dr&E 24th St S,0,
36.130608,Mem23st,-95.88656,5793,,,2275 S Memorial Dr & E 23rd St S,S Memorial Dr&E 23rd St S,0,
36.131034,Mem22st,-95.886802,5792,,,2241 S Memorial Dr & E 22nd St S,S Memorial Dr&E 22nd St S,0,
36.132783,Mem21st,-95.886807,5791,,,2136 S Memorial Dr & E 21st St S,S Memorial Dr&E 21st St S,0,
36.135032,Mem19st,-95.886787,5790,,,1914 S Memorial Dr & E 19th St S,S Memorial Dr&E 19th St S,0,
36.118183,Mem31st,-95.886721,5799,,,3118 S Memorial Dr & E 31st St S,S Memorial Dr&E 31st St S,0,
36.053628,Mem76st,-95.886392,6109,,,7612 S Memorial Dr & E 76Th St S,S Memorial Dr&E 76Th St S,0,
36.052714,Mem77Ct,-95.886068,6108,,,7715 S Memorial Dr & E 77Th Ct S,S Memorial Dr&E 77Th Ct S,0,
36.049734,Mem79st,-95.886373,6107,,,7912 S Memorial Dr & E 79Th St S,S Memorial Dr&E 79Th St S,0,
36.047296,Mem81st,-95.886041,6106,,,8059 S Memorial Dr & E 81St St S,S Memorial Dr&E 81St St S,0,
36.038476,Mem87Ct,-95.886032,6105,,,8727 S Memorial Dr & E 87Th Ct S,S Memorial Dr&E 87Th Ct S,0,
36.071886,Mem63Pl,-95.886315,6104,,,6363 S Memorial Dr & E 63Rd Pl S,S Memorial Dr&E 63Rd Pl S,0,
36.073832,Mem63st,-95.886316,6103,,,6179 S Memorial Dr & E 63Rd St S,S Memorial Dr&E 63Rd St S,0,
36.041011,Mem87st,-95.88604,6102,,,8549 S Memorial Dr & E 87Th St S,S Memorial Dr&E 87Th St S,0,
36.084762,Mem55st,-95.886645,6101,,,5530 S Memorial Dr & E 55Th St S,S Memorial Dr&E 55Th St S,0,
36.068535,NewP66Pl,-95.978086,6100,,,6699 S Newport Ave & E 66Th Pl S,S Newport Ave&E 66Th Pl S,0,
36.210006,Hart39st,-95.98448,6446,,,,N Hartford Ave&E 39Th St N,0,
36.206136,Hart39st,-95.984648,6447,,,3704 N Hartford Ave & E 39Th St N,N Hartford Ave&E 39Th St N,0,
36.216366,Hart43st,-95.984587,6444,,,4284 N Hartford Ave & E 43Rd St N,N Hartford Ave&E 43Rd St N,0,
36.063446,PeoRivD,-95.975728,6039,,,6933 S Peoria Ave & Riverside Dr,S Peoria Ave&Riverside Dr,0,
36.214283,Hart42st,-95.98463,6445,,,,N Hartford Ave&E 42Nd St N,0,
36.074698,Unio61st,-96.01181,6033,,,6118 S Union Ave & W 61St St S,S 61st St & Union,0,
36.047428,Wh81st,-95.964187,6032,,,8013 S Wheeling Ave & E 81St St S,S Wheeling Ave&E 81St St S,0,
36.060336,Wh71st,-95.963523,6031,,,7114 S Wheeling Ave & E 71St St S,S Wheeling Ave&E 71St St S,0,
36.058765,Wh72st,-95.963841,6030,,,7209 S Wheeling Ave & E 72Nd St S,S Wheeling Ave&E 72Nd St S,0,
36.150023,Peo8st,-95.975714,6037,,,832 S Peoria Ave & E 8Th St S,S Peoria Ave&E 8Th St S,0,
36.150698,Peo8st,-95.975545,6036,,,657 S Peoria Ave & E 8Th St S,S Peoria Ave&E 8Th St S,0,
36.088903,Peo51st,-95.975844,6035,,,5122 S Peoria Ave & E 51St St S,S Peoria Ave&E 51St St S,0,
36.088677,Peo53st,-95.975672,6034,,,5133 S Peoria Ave & E 53Rd St S,S Peoria Ave&E 53Rd St S,0,
36.140566,15stPeo,-95.975321,5173,,,1308 E 15th St S & S Peoria Ave,E 15th St S&S Peoria Ave,0,
36.140699,15stPeo,-95.976043,5172,,,1265 E 15th St S & S Peoria Ave,E 15th St S&S Peoria Ave,0,
36.140576,15stOswe,-95.976355,5171,,,1238 E 15th St S & S Owasso Ave,E 15th St S&S Owasso Ave,0,
36.140698,15stOswe,-95.932824,5170,,,3977 E 15th St S & S Oswego Ave,E 15th St S&S Oswego Ave,0,
36.140458,15stPit,-95.930561,5177,,,4182 E 15th St S & S Pittsburg Ave,E 15th St S&S Pittsburg Ave,0,
36.140678,15stQueb,-95.930556,5176,,,4181 E 15th St S & S Quebec Ave,E 15th St S&S Quebec Ave,0,
36.140714,15stQuak,-95.974892,5175,,,1321 E 15th St S & S Quaker Ave,E 15th St S&S Quaker Ave,0,
36.140681,15stPit,-95.931704,5174,,,4075 E 15th St S & S Pittsburg Ave,E 15th St S&S Pittsburg Ave,0,
36.140447,15stRich,-95.928957,5179,,,,E 15th St S&S Richmond Ave,0,
36.140557,15stQuin,-95.972922,5178,,,1430 E 15th St S & S Quincy Ave,E 15th St S&S Quincy Ave,0,
36.065248,WHM,-95.882372,133,,,WOODLAND HILLS MALL & E 68TH ST S,Woodland Hills Mall,0,
36.094444,Sher48st,-95.904316,5924,,,4753 S Sheridan Rd & E 48Th St S,S Sheridan Rd&E 48Th St S,0,
36.022526,MaJKBchS,-95.971923,6327,,,290 W Main St & S Birch St,W Main St&S Birch St,0,
36.153226,Chey2st,-95.99393,6326,,,226 S Cheyenne Ave & W 2Nd St S,S Cheyenne Ave&W 2Nd St S,0,
36.152025,Chey3st,-95.993349,6325,,,354 S Cheyenne Ave & W 3Rd St S,S Cheyenne Ave&W 3Rd St S,0,
36.177422,CinPine,-95.993406,6323,,,1527 N Cincinnati Ave & E Pine St,Pine & Martin Luther King Jr Blvd,0,
36.191783,CinApch,-95.993434,6321,,,2607 N Cincinnati Ave & E Apache St,Martin Luther King Jr Blvd Ave&E Apache St,0,
36.183937,CinUteP,-95.993446,6320,,,N Cincinnati Ave & E Ute Pl,Martin Luther King Jr Blvd &E Ute Pl,0,
36.022517,MaJKElJ,-95.975053,6329,,,542 W Main St & S Elm St,Main & Elm,0,
36.140479,15stLew,-95.957797,5161,,,2410 E 15th St S & S Lewis Ave,E 15th St S&S Lewis Ave,0,
36.08982,51st30av,-96.026337,6564,,,3000 W 51St St S & S 30Th W Ave,W 51St St S&S 30Th W Ave,0,
36.166866,CCJasp,-96.003323,5611,,,,N Country Club Dr&W Jasper St,0,
36.080802,57st37av,-96.03386,6561,,,3588 W 57Th St S & S 37Th W Ave,W 57Th St S&S 37Th W Ave,0,
36.080783,57st57av,-96.036185,6560,,,3940 W 57Th St S & S 57Th W Ave,W 57Th St S&S 57Th W Ave,0,
36.090575,51st33av,-96.029361,6563,,,,S 51st St & 33rd W Ave,0,
36.080786,57st35av,-96.031775,6562,,,3362 W 57Th St S & S 35Th W Ave,W 57Th St S&S 35Th W Ave,0,
36.118883,31stLou,-95.9369,5319,,,3597 E 31st St S & S Louisville Ave,E 31st St S&S Louisville Ave,0,
36.118732,31stHarv,-95.939512,5318,,,3364 E 31st St S & S Harvard Ave,E 31st St S&S Harvard Ave,0,
36.119021,31st90av,-95.875274,5313,,,8967 E 31st St S & S 90th E Ave,E 31st St S&S 90th E Ave,0,
36.118866,31st88av,-95.877977,5312,,,8810 E 31st St S & S 88th E Ave,E 31st St S&S 88th E Ave,0,
36.118997,31st87av,-95.879892,5311,,,8651 E 31st St S & S 87th E Ave,E 31st St S&S 87th E Ave,0,
36.118992,31st86av,-95.881995,5310,,,8471 E 31st St S & S 86th E Ave,E 31st St S&S 86th E Ave,0,
36.119074,31stGntt,-95.851508,5317,,,11271 E 31st St S & S Garnett Rd,E 31st st S & S Garnett Rd,0,
36.118882,31stGntt,-95.85068,5316,,,11314 E 31st St S & S Garnett Rd,E 31st St S&S Garnett Rd,0,
36.11903,31st94av,-95.871859,5315,,,9183 E 31st St S & S 94th E Ave,E 31st St S&S 94th E Ave,0,
36.118884,31st94av,-95.870793,5314,,,9406 E 31st St S & S 94Th E Ave,E 31st St S&S 94Th E Ave,0,
36.160635,MeAPN,-95.886194,1655,,,N MEMORIAL DR & E ADMIRAL PL,Memorial & Admiral,0,
36.082541,41av56pl,-96.038483,6583,,,5601 S 41St W Ave & W 56Th Pl S,S 41St W Ave&W 56Th Pl S,0,
36.080863,57st38av,-96.035578,6582,,,3845 W 57Th St S & S 38Th W Ave,W 57Th St S&S 38Th W Ave,0,
36.099466,33av45st,-96.02943,6580,,,4407 S 33Rd W Ave & W 45Th St S,S 33Rd W Ave&W 45Th St S,0,
36.156745,FLAG1,-95.975881,6587,,,,E 3RD ST S&S PEORIA AVE,0,
36.075284,61st29av,-96.02489,6586,,,3082 W 61St St S & S 29Th W Ave,W 61St St S&S 29Th W Ave,0,
36.077005,QT 49,-96.047632,6584,,,6002 S 49Th W Ave & W 60Th St S,Southwest Blvd Quik Trip,0,
36.13778,FLAG3,-96.097926,6589,,,E CHARLES PAGE BLVD & S 103RD EAST AVE,E CHARLES PAGE BLVD&S ADAMS RD,0,
36.133356,FLAG2,-95.862221,6588,,,E 21ST ST S & S 103RD EAST AVE,E 21ST ST S&S 103RD E AVE,0,
36.104454,41stYa,-95.922793,5407,,,4875 E 41st St S & S Yale Ave,E 41ST ST S&S YALE AVE,0,
36.104216,41stWh,-95.962661,5406,,,1952 E 41st St S & S Wheeling Ave,E 41st St S&S Wheeling Ave,0,
36.104332,41stYork,-95.962706,5405,,,1951 E 41st St S & S Yorktown Ave,E 41st St S&S Yorktown Ave,0,
36.104222,41stVict,-95.96556,5404,,,1804 E 41st St S & S Victor Ave,E 41st St S&S Victor Ave,0,
36.104352,41stUtic,-95.967186,5403,,,1677 E 41st St S & S Utica Ave,E 41st St S&S Utica Ave,0,
36.104247,41stTroo,-95.967299,5402,,,1664 E 41st St S & S Troost Pl,E 41st St S&S Troost Pl,0,
36.1043,41stSher,-95.904113,5401,,,6524 E 41st St S & S Sheridan Rd,S Sheridan Rd&E 41st St S,0,
36.104224,41stRock,-95.971742,5400,,,1470 E 41st St S & S Rockford Ave,E 41st St S&S Rockford Ave,0,
36.094722,47Pl93av,-95.870086,5409,,,9518 E 47Th Pl S & S 93Rd E Ave,E 47Th Pl S&S 93Rd E Ave,0,
36.104266,41stYa,-95.919547,5408,,,5058 E 41st St S & S Yale Ave,E 41st St S&S Yale Ave,0,
36.033371,STFR SOU,-95.855844,4263,,,ST FRANCIS SOUTH & E 91ST ST S,Saint Francis South Hospital,0,
36.05833,T Hil,-96.002448,4264,,,S OLYMPIA AVE & E 71ST ST S,Tulsa Hills Shopping Center,0,
36.076666,gar61,-95.851154,4265,,,S GARNETT RD & E 60TH ST S,S Garnett Rd & E 61st St S,0,
36.058517,T Hill,-96.002606,4267,,,S OLYMPIA AVE & E 71ST ST S,Tulsa Hills Shopping Center,0,
36.156247,1Cin,-95.990034,4268,,,S CINCINNATI AVE & E 1ST ST S,1st and Cincinnati,0,
36.154998,2Cin,-95.989468,4269,,,S CINCINNATI AVE & E 2ND ST S,2nd and Cincinnati,0,
36.177005,PineZuni,-95.9584,5548,,,2286 E Pine St & N Zunis Ave,Pine & Lewis,0,
36.177199,PineLew,-95.959078,5549,,,2241 E Pine St & N Lewis Ave,E Pine St&N Lewis Ave,0,
36.177044,PineHarv,-95.939728,5542,,,3378 E Pine St & N Harvard Ave,E Pine St&N Harvard Ave,0,
36.177224,PineIndy,-95.939957,5543,,,3345 E Pine St & N Indianapolis Ave,E Pine St&N Indianapolis Ave,0,
36.176891,PineHart,-95.984416,5540,,,,E Pine St&N Hartford Ave,0,
36.177023,PineHart,-95.984771,5541,,,,E Pine St&N Hartford Ave,0,
36.176892,PineMad,-95.979541,5546,,,1020 E Pine St & N Madison Ave,E Pine St&N Madison Ave,0,
36.177021,PineLans,-95.982037,5547,,,795 E Pine St & N Lansing Ave,E Pine St&N Lansing Ave,0,
36.176886,PineMidP,-95.981472,5544,,,836 E Pine St & N Midland Pl,E Pine St&N Midland Pl,0,
36.177026,PineKgtP,-95.909409,5545,,,,E Pine St&N Kingston Pl,0,
36.140684,15Bu,-95.988809,5890,,,131 W 15th St S & S Boulder Ave,15th & Boulder,0,
36.140555,15stBld,-95.98825,5891,,,80 W 15th St S & S Boulder Ave,W 15th St S&S Boulder Ave,0,
36.140688,15stCars,-95.990868,5892,,,225 W 15th St S & S Carson Ave,W 15th St S&S Carson Ave,0,
36.140556,15stDnvr,-95.991728,5893,,,,S Denver Ave&W 15th St S,0,
36.133427,21stMa,-95.987544,5894,,,5 W 21st St S & S Main St,21st St S&S Main St,0,
36.13853,2stPlaz,-96.104201,5895,,,361 E 2nd St & Plaza Ct,E 2nd St&Plaza Ct,0,
36.156892,ArchBld,-95.994704,5897,,,127 W Archer St & N Boulder Ave,W Archer St&N Boulder Ave,0,
36.156997,ArchBld,-95.993836,5898,,,,W Archer St&N Boulder Ave,0,
36.15646,ArchChey,-95.99577,5899,,,223 W Archer St & N Cheyanne Ave,W Archer St&N Cheyanne Ave,0,
36.177127,FLAG37,-95.940357,6628,,,,E PINE ST&N HARVARD AVE,0,
36.161164,FLAG44,-96.038275,6629,,,W EDISON ST & N 42ND WEST AVE,W EDISON ST&N 41ST W AVE,0,
36.177061,FLAG38,-95.96725,6626,,,,E PINE ST&N UTICA AVE,0,
36.176999,FLAG39,-95.967104,6627,,,,E PINE ST&N UTICA AVE,0,
36.133549,FLAG41,-95.864632,6624,,,E 21ST ST S & S 99TH EAST AVE,E 21ST ST S&S 101ST E AVE,0,
36.133371,FLAG40,-95.864419,6625,,,E 21ST ST S & S 101ST EAST AVE,E 21ST ST S&S 101ST E AVE,0,
36.160749,FLAG42,-95.870076,6622,,,E ADMIRAL PL & N 93RD EAST AVE,E ADMIRAL PL&N MINGO RD,0,
36.16069,FLAG43,-95.867283,6623,,,E ADMIRAL PL & N 93RD EAST AVE,E ADMIRAL PL&S MINGO RD,0,
36.160757,FLAG34,-95.851221,6620,,,E ADMIRAL PL & s. GARNETT,S GARNETT RD&E ADMIRAL PL,0,
36.160525,FLAG41,-95.851153,6621,,,S GARNETT RD & E ADMIRAL PL,S Garnett Rd&E Admiral St,0,
36.14771,Pe11NB,-95.975433,320,,,S PEORIA AVE & E 11TH ST S,S Peoria Ave&E 11Th St S,0,
36.06799,Lew66Pl,-95.957837,6138,,,6591 S Lewis Ave & E 66Th Pl S,S Lewis Ave&E 66Th Pl S,0,
36.081669,Lew56Pl,-95.957891,6139,,,5593 S Lewis Ave & E 56Th Pl S,S Lewis Ave&E 56Th Pl S,0,
36.034289,Mem91st,-95.886221,6132,,,8949 S Memorial Dr & E 91St St S,S Memorial Dr&E 91St St S,0,
36.150351,Ma6st,-95.989565,6133,,,608 S Main St & W 6Th St S,S Main St&W 6Th St S,0,
36.09698,Mem46st,-95.886668,6130,,,4620 S Memorial Dr & E 46Th St S,S Memorial Dr&E 46Th St S,0,
36.094281,Mem48st,-95.886664,6131,,,4810 S Memorial Dr & E 48Th St S,S Memorial Dr&E 48Th St S,0,
36.071596,Mad63st,-95.979734,6136,,,6334 S Madison Pl & E 63Rd St S,S Madison Pl&E 63Rd St S,0,
36.14854,LawtHTW,-96.000944,6137,,,458 S Lawton Ave/Southwest Blvd & W Heavy Traffic Way,S Lawton Ave/Southwest Blvd&W Heavy,0,
36.142341,Ma14st,-95.987413,6134,,,1404 S Main St & W 14Th St S,S Main St&W 14Th St S,0,
36.075031,Mad61st,-95.979561,6135,,,6106 S Madison Pl & E 61St St S,S Madison Pl&E 61St St S,0,
36.223136,Peo47Pl,-95.975659,6006,,,4742 N Peoria Ave & E 47Th Pl N,N Peoria Ave&E 47Th Pl N,0,
36.220126,Peo46st,-95.975692,6007,,,4574 N Peoria Ave & E 46Th St N,N Peoria Ave & E 48 th St N,0,
36.226633,Peo50Pl,-95.975662,6004,,,5038 N Peoria Ave & E 50Th Pl N,N Peoria Ave&E 50Th Pl N,0,
36.225098,Peo50st,-95.975658,6005,,,4974 N Peoria Ave & E 50Th St N,N Peoria Ave&E 50Th St N,0,
36.230947,Peo54st,-95.97565,6002,,,5284 N Peoria Ave & E 54Th St N,N Peoria Ave & 54th St N,0,
36.234333,Peo56st,-95.975651,6001,,,5480 N Peoria Ave & E 56Th St N,N Peoria Ave & 56th St N,0,
36.20963,Peo46st,-95.975645,6008,,,3858 N Peoria Ave & E 46Th St N,N Peoria Ave&E 46Th St N,0,
36.208526,Peo38st,-95.97565,6009,,,3690 N Peoria Ave & E 38Th St N,N Peoria Ave&E 38Th St N,0,
36.140663,15stDar,-95.918304,5148,,,5275 E 15th St S & S Darlington Ave,E 15th St S&S Darlington Ave,0,
36.14054,15stDar,-95.917889,5149,,,,E 15th St S&S Darlington Ave,0,
36.140625,15stCuP,-95.951427,5146,,,2701 E 15th St S & S Columbia Pl,E 15th St S&S Columbia Pl,0,
36.140463,15stColu,-95.9513,5147,,,2704 E 15th St S & S Columbia Ave,E 15th St S&S Columbia Ave,0,
36.140704,15stCin,-95.984369,5144,,,165 E 15th St S & S Cincinnati Ave,E 15th St S&S Cincinnati Ave,0,
36.140642,15stColl,-95.946177,5145,,,2975 E 15th St S & S College Ave,E 15th St S&S College Ave,0,
36.14065,15stBrdn,-95.920537,5142,,,5073 E 15th St S & S Braden Ave,E 15th St S&S Braden Ave,0,
36.140495,15stBrdn,-95.920087,5143,,,5110 E 15th St S & S Braden Ave,E 15th St S&S Braden Ave,0,
36.140551,15stCin,-95.983616,5141,,,230 E 15th St S & S Cincinnati Ave,E 15th St S&S Cincinnati Ave,0,
36.156806,DnvrBrdy,-95.997202,6312,,,,N Denver Ave&W Brady St,0,
36.148635,Dnvr7st,-95.992639,6313,,,671 S Denver Ave & W 7Th St S,S Denver Ave&W 7Th St S,0,
36.162126,DnvrFair,-95.99954,6310,,,586 N Denver Ave & W Fairview St,N Denver Ave&W Fairview St,0,
36.157509,DnvrCamr,-95.997553,6311,,,248 N Denver Ave & W Cameron St,N Denver Ave&W Cameron St,0,
36.153391,Dnvr2st,-95.995194,6317,,,173 S Denver Ave & W 2Nd St S,S Denver Ave&W 2Nd St S,0,
36.148054,Dnvr7st,-95.992533,6314,,,736 S Denver Ave & W 7Th St S,S Denver Ave&W 7Th St S,0,
36.149054,Dnvr6st,-95.993009,6315,,,624 S Denver Ave & W 6Th St S,S Denver Ave&W 6Th St S,0,
36.146409,Dnvr9st,-95.992364,6318,,,940 S Denver Ave & W 9Th St S,S Denver Ave&W 9Th St S,0,
36.187223,CinXylr,-95.993455,6319,,,2365 N Cincinnati Ave & E Xyler St,Martin Luther King Jr Blvd &E Xyler St,0,
36.220406,46stGarr,-95.986319,6442,,,632 E 46th St N & N Garrison Ave,E 46th St N&N Garrison Ave,0,
36.147757,11stLou,-95.935283,5098,,,3726 E 11th St S & S Louisville Ave,E 11th St S&S Louisville Ave,0,
36.147987,11stMpwd,-95.908403,5099,,,6159 E 11th St S & S Maplewood Ave,E 11th St S&S Maplewood Ave,0,
36.147948,11stHud,-95.913861,5090,,,5583 E 11th St S & S Hudson Ave,E 11th St S&S Hudson Ave,0,
36.14782,11stHud,-95.913268,5091,,,5708 E 11th St S & S Hudson Ave,E 11th St S&S Hudson Ave,0,
36.147898,11stJamt,-95.938394,5092,,,3475 E 11th St S & S Jamestown Ave,E 11th St S&S Jamestown Ave,0,
36.147967,11stJop,-95.911537,5093,,,5789 E 11th St S & S Joplin Ave,E 11th St S&S Joplin Ave,0,
36.147837,11stJop,-95.91106,5094,,,5910 E 11th St S & S Joplin Ave,E 11th St S&S Joplin Ave,0,
36.147897,11stLew,-95.958983,5095,,,2259 E 11th St S & S Lewis Ave,11th & Lewis,0,
36.147755,11stLew,-95.957893,5096,,,2404 E 11th St S & S Lewis Ave,11th & Lewis,0,
36.147883,11stLou,-95.936171,5097,,,3679 E 11th St S & S Louisville Ave,E 11th St S&S Louisville Ave,0,
36.22043,46stDetP,-95.990654,6440,,,328 E 46th st N & N Detroit Pl,E 46th st N&N Detroit Pl,0,
36.170336,SherLatP,-95.904651,5656,,,1104 N Sheridan Rd & E Latimer Pl,N Sheridan Rd&E Latimer Pl,0,
36.118769,31st31Pl,-95.929626,5326,,,4136 E 31st St S & E 31St Pl S,E 31st St S&E 31St Pl S,0,
36.1189,31stSand,-95.928076,5327,,,4351 E 31st St S & S Sandusky Ave,E 31st St S&S Sandusky Ave,0,
36.118889,31stPit,-95.932741,5324,,,3949 E 31st St S & S Pittsburg Ave,E 31st St S&S Pittsburg Ave,0,
36.118881,31stNHvn,-95.935341,5325,,,3737 E 31st St S & S New Haven Ave,E 31st St S&S New Haven Ave,0,
36.1188,31stMem,-95.886128,5322,,,8122 E 31st St S & S Memorial Dr,E 31st St S&S Memorial Dr,0,
36.118887,31stMngo,-95.868115,5323,,,9712 E 31st St S & S Mingo Rd,E 31st St S&S Mingo Rd,0,
36.118763,31stLou,-95.935339,5320,,,3736 E 31st St S & S Louisville Ave,E 31st St S&S Louisville Ave,0,
36.119026,31stMem,-95.887077,5321,,,8071 E 31st St S & S Memorial Dr,E 31st St S&S Memorial Dr,0,
36.220429,46stFkft,-95.988691,6441,,,506 E 46th St N & N Frankfort Ave,E 46th St N&N Frankfort Ave,0,
36.118939,31stYa,-95.922826,5328,,,4841 E 31st St S & S Yale Ave,E 31st St S&S Yale Ave,0,
36.118983,31st74Pl,-95.894303,5329,,,7390 E 31st St S & S 74th E Pl,E 31st St S&S 74th E Pl,0,
36.148119,11PeWB,-95.975928,579,,,,11th/Peoria W-NW,0,
36.147916,11UtWB,-95.967325,575,,,S UTICA AVE & E 11TH ST S,E 11th St S&S Utica Ave,0,
36.089692,51  129,-95.832799,3164,,,E 51ST ST & S 129 EAST AVE,51ST/129TH E AV E-NE,0,
36.152686,6stOw,-95.977297,5432,,,E 6th St S & S Owasso Ave/S Peoria Ave,E 6th St S&S Owasso Ave,0,
36.152222,6stQuin,-95.973602,5433,,,1385 E 6th St S & S Quincy Ave,E 6th St S&S Quincy Ave,0,
36.15282,6stMad,-95.979961,5430,,,,E 6th St S&S Madison Ave,0,
36.152811,6stOw,-95.977894,5431,,,1151 E 6th St S & S Owasso Ave,E 6th St S&S Owasso Ave,0,
36.152072,6stRock,-95.971517,5436,,,1510 E 6th St S & S Rockford Ave,E 6th St S&S Rockford Ave,0,
36.152197,6stTroo,-95.969617,5437,,,1601 E 6th St S & S Troost Ave,E 6th St S&S Troost Ave,0,
36.152088,6stQuak,-95.973456,5434,,,1392 E 6th St S & S Quaker Ave,E 6th St S&S Quaker Ave,0,
36.152223,6stRock,-95.971841,5435,,,1489 E 6th St S & S Rockford Ave,E 6th St S&S Rockford Ave,0,
36.152199,6stUtic,-95.967815,5438,,,1647 E 6th St S & S Utica Ave,E 6th St S&S Utica Ave,0,
36.160851,Adm103p,-95.863379,5439,,,10149 E Admiral Pl & N 106Th E Pl/S 106Th E Pl,E Admiral Pl& 103Th E Pl,0,
36.046443,Le81NB,-95.957487,732,,,S LEWIS AVE & E 81ST ST S,Lewis & 81st St S,0,
36.154962,2/Cin,-95.989468,4272,,,S CINCINNATI AVE & E 2ND ST S,2nd & S Cincinnati,0,
36.156309,1/Cin,-95.990146,4271,,,S CINCINNATI AVE & E 1ST ST S,1st & S Cincinnati,0,
36.177223,PineOswe,-95.93429,5555,,,3877 E Pine St & N Oswego Ave,E Pine St&N Oswego Ave,0,
36.17706,PineMari,-95.934245,5554,,,3878 E Pine St & N Marion Ave,E Pine St&N Marion Ave,0,
36.176843,PinePeo,-95.975149,5557,,,1338 E Pine St & N Peoria Ave,E Pine St&N Peoria Ave,0,
36.177029,PineOw,-95.977107,5556,,,1163 E Pine St & N Owasso Ave,E Pine St&N Owasso Ave,0,
36.177009,PineMem,-95.879676,5551,,,,E Pine St&N Memorial Dr,0,
36.17704,PineLew,-95.957442,5550,,,2402 E Pine St & N Lewis Ave/N Lewis Pl,E Pine St&N Lewis Ave,0,
36.177018,PineNorf,-95.978104,5553,,,1089 E Pine St & N Norfolk Ave,E Pine St&N Norfolk Ave,0,
36.17687,PineNorf,-95.97744,5552,,,1140 E Pine St & N Norfolk Ave,E Pine St&N Norfolk Ave,0,
36.177019,PineSher,-95.903497,5559,,,6516 E Pine St & N Sheridan Rd,E Pine St&N Sheridan Rd,0,
36.177055,PinePit,-95.931195,5558,,,4116 E Pine St & N Pittsburg Ave,E Pine St&N Pittsburg Ave,0,
36.194036,TCCNE FD,-95.938654,5883,,,,N Harvard Ave&E Apache St,0,
36.045604,81st101a,-95.863329,5882,,,,E 81St St S&S 101st E Ave,0,
36.112975,YaAlgh,-95.922276,5881,,,3515 S Yale Ave & S Allegheny Ave,S Yale Ave&S Allegheny Ave,0,
36.104224,Ya41st,-95.922464,5880,,,4112 S Yale Ave & E 41st St S,S Yale Ave&E 41st St S,0,
36.000221,HickIngw,-95.800915,5884,,,5001 S Hickory Ave & W Inglewood St,TreeTop Apartments,0,
36.190034,ArptArDr,-95.890087,5888,,,UNNAMED ST Tulsa International Airport Terminal & Airport Dr,Tulsa International Airport,0,
36.070948,Unio63st,-96.011766,6554,,,6318 S Union Ave & W 63Rd St S,S Union Ave&W 63Rd St S,0,
36.068009,Unio66st,-96.011763,6555,,,6618 S Union Ave & W 66Th St S,S Union Ave&W 66Th St S,0,
36.048911,Olym81st,-96.004726,6556,,,,S Olympia Ave&W 81St St S,0,
36.093188,Unio48st,-96.011728,6550,,,4806 S Union Ave & W 48Th St S,S Union Ave&W 48Th St S,0,
36.078283,Unio58st,-96.011771,6551,,,5846 S Union Ave & W 58Th St S,S Union Ave&W 58Th St S,0,
36.074694,Unio61st,-96.011826,6552,,,6146 S Union Ave & W 61St St S,S Union Ave&W 61St St S,0,
36.072032,Unio62st,-96.011768,6553,,,6220 S Union Ave & W 62Nd St S,S Union Ave&W 62Nd St S,0,
36.075471,33av61st,-96.030142,6558,,,3347 S 33Rd W Ave & W 61St St S,33rd W Ave. & S 61st St,0,
36.081478,41av56st,-96.038593,6559,,,5626 S 41St W Ave & W 56Th St S,S 41St W Ave&W 56Th St S,0,
36.151795,DBAY1,-95.993314,6639,,,319 S DENVER AVE,DAS BAY 01,0,
36.212936,COLU41ST,-95.951405,6638,,,N COLUMBIA AVE & E 41ST ST N,Columbia & 41st St N,0,
36.220438,FLAG36,-95.993381,6631,,,E 46TH ST N & N CINCINNATI PL,E 46TH ST N&Martin Luther King Jr Blvd,0,
36.161092,FLAG44,-96.038274,6630,,,W EDISON ST & N 42ND WEST AVE,W EDISON ST&N 41ST W AVE,0,
36.224232,FLAG35,-95.993598,6633,,,E 49TH ST N & N CINCINNATI AVE,E 49TH ST N& Martin Luther King Jr Blvd,0,
36.220518,FLAG45,-95.99355,6632,,,E 46TH ST N & N CINCINNATI AVE,E 46TH ST N&Martin Luther King Jr Blvd,0,
36.224161,FLAG46,-95.993598,6634,,,E 49TH ST N & N CINCINNATI AVE,E 49TH ST N&Martin Luther King Jr Blvd,0,
36.248216,FLAG49,-96.000239,6637,,,N ELWOOD AVE & W 64TH PL N,65th St N & Elwood,0,
36.244929,FLAG48,-95.993578,6636,,,E 63RD ST N & N CINCINNATI AVE,E 63RD ST N& Martin Luther King Jr Blvd,0,
36.162763,OsFa,-96.001725,4012,,,N OSAGE DR & W FAIRVIEW ST,Fairview Osage,0,
36.09295,Mem49st,-95.886406,6127,,,,S Memorial Dr&E 49Th St S,0,
36.088748,Mem51st,-95.886681,6126,,,5214 S Memorial Dr & E 51St St S,S Memorial Dr&E 51St St S,0,
36.078662,Mem58Pl,-95.886564,6121,,,5826 S Memorial Dr & E 58Th Pl S,S Memorial Dr&E 58Th Pl S,0,
36.080647,Mem58st,-95.886366,6120,,,5755 S Memorial Dr & E 58Th St S,S Memorial Dr&E 58Th St S,0,
36.082344,Mem57st,-95.886626,6123,,,5706 S Memorial Dr & E 57Th St S,S Memorial Dr&E 57Th St S,0,
36.082599,Mem57st,-95.886397,6122,,,5703 S Memorial Dr & E 57Th St S,S Memorial Dr&E 57Th St S,0,
36.095126,Mem48st,-95.886431,6129,,,4745 S Memorial Dr & E 48Th St S,S Memorial Dr&E 48Th St S,0,
36.092735,Mem49st,-95.886673,6128,,,,S Memorial Dr&E 49Th St S,0,
36.146302,GnttSkDr,-95.850978,5754,,,1191 S Garnett Rd & E Skelly Dr,S Garnett Rd&E Skelly Dr,0,
36.067526,InPlNB,-95.977872,287,,,S NEWPORT AVE & E 66TH PL S,Inhofe Plaza,0,
36.089664,Me51S,-95.886645,267,,,S MEMORIAL DR & E 51ST ST S,S Memorial Dr&E 51St St S,0,
36.205625,Peo36st,-95.975694,6011,,,3588 N Peoria Ave & E 36Th St N,N Peoria Ave&E 36Th St N,0,
36.207121,Peo38st,-95.97566,6010,,,3642 N Peoria Ave & E 38Th St N,N Peoria Ave&E 38Th St N,0,
36.19094,PeoApch,-95.976109,6013,,,2600 N Peoria Ave & E Apache St,N Peoria Ave&E Apache St,0,
36.194716,PeoMHKB,-95.975899,6012,,,2794 N Peoria Ave & Mohawk Blvd,N Peoria Ave&Mohawk Blvd,0,
36.155485,ArchElw,-95.998647,6017,,,463 W Archer St & N Elwood Ave,W Archer St&N Elwood Ave,0,
36.156247,ArchChey,-95.99634,6016,,,263 W Archer St & N Cheyanne Ave,W Archer St&N Cheyanne Ave,0,
36.126329,25stNoga,-96.003666,6019,,,W 25Rd St S & S Nogales Ave,W 25th St S&S Nogales Ave,0,
36.060878,71stElw,-95.993439,6018,,,388 W 71St St S & S Elwood Ave,W 71St St S&S Elwood Ave,0,
36.140684,15stJamt,-95.938388,5159,,,,E 15th St S&S Jamestown Ave,0,
36.140485,15stHarv,-95.939677,5158,,,3360 E 15th St S & S Harvard Ave,E 15th St S&S Harvard Ave,0,
36.140633,15stEvan,-95.947514,5151,,,2867 E 15th St S & S Evanston Ave,E 15th St S&S Evanston Ave,0,
36.140499,15stDel,-95.949025,5150,,,2804 E 15th St S & S Delaware Ave,E 15th St S&S Delaware Ave,0,
36.140494,15stFlor,-95.944622,5153,,,3104 E 15th St S & S Florence Ave,E 15th St S&S Florence Ave,0,
36.140508,15stEvan,-95.946865,5152,,,2920 E 15th St S & S Evanston Ave,E 15th St S&S Evanston Ave,0,
36.140628,15stGary,-95.942863,5155,,,3177 E 15th St S & S Gary Ave,E 15th St S&S Gary Ave,0,
36.140542,15stErie,-95.915943,5154,,,,E 15th St S&S Erie Ave,0,
36.140631,15stHarv,-95.940939,5157,,,3255 E 15th St S & S Harvard Ave,E 15th St S&S Harvard Ave,0,
36.140503,15stGary,-95.942248,5156,,,3208 E 15th St S & S Gary Ave,E 15th St S&S Gary Ave,0,
36.104287,Un41NB,-96.01114,2786,,,W 41ST ST & S UNION AVE,Union/41st N-NE,0,
36.194806,Garr27PL,-95.986706,6309,,,,N Garrison Ave&E 27Th Pl N,0,
36.193367,GarrMHKB,-95.986679,6308,,,N Garrison Ave & Mohawk Blvd,Garrison & 27th St N,0,
36.225961,Hart49Pl,-95.984464,6305,,,4951 N Hartford Ave & E 49Th Pl N,N Hartford Ave&E 49Th Pl N,0,
36.224442,Hart49st,-95.984489,6304,,,,N Hartford Ave&E 49Th St N,0,
36.214787,Hart42st,-95.984449,6307,,,,N Hartford Ave&E 42Nd St N,0,
36.216855,Hart43st,-95.984408,6306,,,4325 N Hartford Ave & E 43Rd St N,N Hartford Ave&E 43Rd St N,0,
36.231798,Hart54st,-95.984489,6301,,,5415 N Hartford Ave & E 54Th St N,N Hartford Ave&E 54Th St N,0,
36.234764,Hart56st,-95.9845,6300,,,5593 N Hartford Ave & E 56Th St N/E 54Th Pl N,56th St N & Hartford,0,
36.228374,Hart51Pl,-95.984491,6303,,,5121 N Hartford Ave & E 51St Pl N,N Hartford Ave&E 51St Pl N,0,
36.229991,Hart52Pl,-95.984498,6302,,,5251 N Hartford Ave & E 52Nd Pl N,N Hartford Ave&E 52Nd Pl N,0,
36.147749,11stIndy,-95.939761,5089,,,3344 E 11th St S & S Indiannapolis Ave,E 11th St S&S Indiannapolis Ave,0,
36.147917,11stHarv,-95.940854,5088,,,3265 E 11th St S & S Harvard Ave,E 11th St S&S Harvard Ave,0,
36.1478,11stFul,-95.915608,5083,,,5504 E 11th St S & S Fulton Ave,E 11th St S&S Fulton Ave,0,
36.147963,11stNorf,-95.981422,5082,,,507 E 11th St S & S Norfolk Ave/S Frankfort Ave,E 11th St S&S Norfolk Ave,0,
36.147765,11stFlor,-95.944492,5081,,,3108 E 11th St S & S Florence Ave,E 11th St S&S Florence Ave,0,
36.147895,11stFlor,-95.945274,5080,,,3069 E 11th St S & S Florance Ave,E 11th St S&S Florance Ave,0,
36.147757,11stGary,-95.942376,5087,,,3204 E 11th St S & S Gary Ave,E 11th St S&S Gary Ave,0,
36.147896,11stGary,-95.942854,5086,,,3179 E 11th St S & S Gary Ave,E 11th St S&S Gary Ave,0,
36.147893,11stGntt,-95.85025,5085,,,11332 E 11th St S & S Garnett Rd,E 11th St S&S Garnett Rd,0,
36.148152,11stGntt,-95.851753,5084,,,11229 E 11th St S & S Garnett Rd,E 11th St S&S Garnett Rd,0,
36.118814,31stSher,-95.90403,5330,,,6532 E 31st St S & S Sheridan Rd,E 31st St S&S Sheridan Rd,0,
36.156691,3stLew,-95.958577,5333,,,2367 E 3rd St S & S Lewis Ave,E 3rd St S&S Lewis Ave,0,
36.156528,3stAtl,-95.955508,5335,,,2520 E 3rd St S & S Atlanta Ave,E 3rd St S&S Atlanta Ave,0,
36.156665,3stAtl,-95.956269,5334,,,2483 E 3rd St S & S Atlanta Ave,E 3rd St S&S Atlanta Ave,0,
36.156524,3stBmAv,-95.953439,5337,,,2610 E 3rd St S & S Birmingham Ave,E 3rd St S&S Birmingham Ave,0,
36.156638,3stBmAv,-95.953972,5336,,,2589 E 3rd St S & S Birmingham Ave,E 3rd St S&S Birmingham Ave,0,
36.156653,3stColu,-95.95179,5339,,,2685 E 3rd St S & S Columbia Ave,E 3rd St S&S Columbia Ave,0,
36.15624,3stColl,-95.945823,5338,,,3022 E 3rd St S & S College Ave,E 3rd St S&S College Ave,0,
36.224094,49Den-W,-95.997089,3212,,,N DENVER AVE & W 49 ST N,49th St N & Denver,0,
36.235013,Hart56NB,-95.985345,3213,,,E 56 ST N & N GARRISON PL,Hartford & 56th St N,0,
36.075368,61  MENE,-95.886273,3175,,,E 61ST ST & S MEMORIAL DR,S Memorial Dr&E 61st St S,0,
36.036753,MaBARich,-95.790934,5639,,,,S Main St&E Richmond St,0,
36.152834,6stMad,-95.980775,5429,,,,E 6th St S&S Madison Ave,0,
36.152676,6stLans,-95.980688,5428,,,,E 6th St S&S Lansing Ave,0,
36.15214,6stElg,-95.985205,5427,,,373 E 6th St S & S Elgin Ave,E 6th St S&S Elgin Ave,0,
36.151871,6stDet,-95.985426,5426,,,346 E 6th St S & S Detroit Ave,E 6th St S&S Detroit Ave,0,
36.155908,4stHarv,-95.940078,5421,,,,E 4th St S  &S Harvard Ave,0,
36.156068,4stHarv,-95.940754,5420,,,,E 4Th St S&S Harvard Ave,0,
36.156039,4stLou,-95.936065,5422,,,,E 4Th St S&S Louisville Ave,0,
36.180371,PeoSemP,-95.975973,6497,,,1722 N Peoria Ave & E Seminole Pl,N Peoria Ave&E Seminole Pl,0,
36.183771,PeoVirg,-95.976096,6496,,,2046 N Peoria Ave & E Virgin St,Peoria & Virgin,0,
36.207983,Osage,-96.00228,4244,,,36 th street North,Osage Casino,0,
36.133974,Wal mart,-96.120167,4245,,,,Sand Springs Wal-Mart,0,
36.060814,Asp/Ken,-95.815339,6499,,,S 145TH EAST AVE & W GREELEY ST,W Kenosha St&N Aspen Av,0,
36.176852,PineCin,-95.993145,5520,,,214 E Pine St & N Cincinnati Ave,E Pine St & Martin Luther King Jr Blvd,0,
36.177019,PineElg,-95.992079,5521,,,259 E Pine St & N Elgin Ave,E Pine St&N Elgin Ave,0,
36.177064,PineColl,-95.944896,5522,,,3032 E Pine St & N College Ave,E Pine St&N College Ave,0,
36.17718,PineColl,-95.945911,5523,,,2951 E Pine St & N College Ave,E Pine St&N College Ave,0,
36.177192,PineColu,-95.952335,5524,,,2679 E Pine St & N Columbia Ave,E Pine St&N Columbia Ave,0,
36.177067,PineCuP,-95.9508,5525,,,,E Pine St&N Columbia Pl,0,
36.177069,PineDel,-95.949493,5526,,,,E Pine St&N Delaware Ave,0,
36.177207,PineDel,-95.950166,5527,,,,E Pine St&N Delaware Ave,0,
36.176882,PineElg,-95.990835,5528,,,,E Pine St&N Elgin Ave,0,
36.177205,PineEvan,-95.947797,5529,,,,E Pine St&N Evanston Ave,0,
36.164211,GrnwGrnw,-95.987085,5633,,,391 N Greenwood Ave & N Greenwood Ave/E John Hope Franklin Blvd,N Greenwood Ave&OSU,0,
36.13337,21st87av,-95.879701,5250,,,8714 E 21st St S & S 87th E Ave,E 21st St S&S 87th E Ave,0,
36.113099,SW35st,-96.009886,6547,,,3510 Southwest Blvd & W 35Th St S,Southwest Blvd&W 35Th St S,0,
36.12138,SWGood,-96.00728,6546,,,2800 Southwest Blvd & Goodwill Industries,Southwest Blvd&Goodwill Industries,0,
36.135562,19stSW,-96.006582,6545,,,1266 W 19Th St S & Southwest Blvd,W 19Th St S&Southwest Blvd,0,
36.060491,MaBAKeBA,-95.790873,5638,,,872 N Main St & W Kenosha St/E 71st St S,N Main St&W Kenosha St,0,
36.191286,ApLeEB,-95.957515,791,,,N LEWIS AVE & E APACHE ST,Apache & Lewis,0,
36.139906,SWunkn,-96.006835,6540,,,1583 Southwest Blvd & unknown,Southwest Blvd& 16th St S,0,
36.164034,GrnwGrnw,-95.987074,5634,,,388 N Greenwood Ave & N Greenwood Ave/E John Hope Franklin Blvd,N Greenwood Ave&OSU,0,
36.175102,OkStKeno,-95.980941,5635,,,,E Oklahoma St&N Kenosha Ave,0,
36.055062,MaBAElg,-95.790907,5636,,,368 N Main St & W Elgin St,N Main St&W Elgin St,0,
36.040038,MaBAMas,-95.790936,5637,,,1356 S Main St & E Mason Dr,S Main St&E Mason Dr,0,
36.174594,GrnwOkSt,-95.98689,5630,,,1370 N Greenwood Ave & E Oklahoma St,N Greenwood Ave&E Oklahoma St,0,
36.176624,GrnwPine,-95.986901,5631,,,1472 N Greenwood Ave & E Pine St,N Greenwood Ave&E Pine St,0,
36.105059,Unio40st,-96.011652,6549,,,4030 S Union Ave & W 40Th St S,S Union Ave&W 40Th St S,0,
36.108873,UniPSW,-96.01205,6548,,,3726 S Union Pl & Southwest Blvd,S Union Pl&Southwest Blvd,0,
36.10414,YA41SB,-95.921842,3194,,,S YALE AVE & E 41ST ST S,S Yale Ave&E 41st St S,0,
